MDB_ID,NAME,BASKV,IDE,AREA_NAME,ZONE_NAME,LAT,LON
1,ROANSPRARE,138.0,1,BEPC_TSP    ,BEPC_GRIMES,30.58480072,-95.93430328
1,KEITHSW,138.0,1,BEPC_TSP    ,BEPC_GRIMES,30.65099907,-96.08999634
1,IOLA,138.0,1,BEPC_TSP    ,BEPC_GRIMES,30.72999954,-96.04499817
1,SANDYSW,138.0,1,BEPC_TSP    ,BEPC_GRIMES,30.63640022,-95.95429993
1,HWY6,138.0,2,BEPC_TSP    ,BEPC_BRAZOS,30.44050026,-96.13059998
1,SANDY,138.0,1,BEPC_TSP    ,BEPC_WALKER,30.61039925,-95.69270325
1,CRTCHFLD,138.0,1,BEPC_TSP    ,BEPC_GRIMES,30.67070007,-95.98739624
1,BEDIAS,138.0,1,BEPC_TSP    ,BEPC_GRIMES,30.78540039,-95.96559906
1,KEITH,138.0,1,BEPC_TSP    ,BEPC_GRIMES,30.64800072,-96.09899902
1,CARLOSSW,138.0,1,BEPC_TSP    ,BEPC_GRIMES,30.61800003,-96.16400146
1,CARLOS,138.0,1,BEPC_TSP    ,BEPC_GRIMES,30.59199905,-96.10199738
1,NORTHZULCH,138.0,1,BEPC_TSP    ,BEPC_MADISO,30.91990089,-96.0739975
1,HAMNDSW,138.0,1,BEPC_TSP    ,BEPC_ROBERT,31.04980087,-96.67690277
1,HAMMOND,138.0,1,BEPC_TSP    ,BEPC_ROBERT,31.09659958,-96.67269897
1,HEARNECITY,69.0,1,BEPC_TSP    ,BEPC_ROBERT,30.85989952,-96.60089874
1,ROBERTSON,138.0,1,BEPC_TSP    ,BEPC_ROBERT,30.94510078,-96.56939697
1,WATSONCHPL,138.0,1,BEPC_TSP    ,BEPC_LEON  ,31.12509918,-96.26989746
1,CALVERTMIN,138.0,1,BEPC_TSP    ,BEPC_ROBERT,31.04439926,-96.68589783
1,HEARNE8,138.0,1,BEPC_TSP    ,BEPC_ROBERT,30.88419914,-96.62599945
1,HEARNE9,69.0,1,BEPC_TSP    ,BEPC_ROBERT,30.89609909,-96.65180206
1,RIDGE,138.0,1,BEPC_TSP    ,BEPC_ROBERT,31.09440041,-96.30879974
1,SUTTON,69.0,1,BEPC_TSP    ,BEPC_ROBERT,30.83069992,-96.53209686
1,GOODLAND,138.0,1,BEPC_TSP    ,BEPC_ROBERT,30.88330078,-96.62609863
1,SKIPPER,138.0,1,BEPC_TSP    ,BEPC       ,31.25300026,-96.14199829
1,TIMBERCST,138.0,1,BEPC_TSP    ,BEPC_LEON  ,,
1,HILTPLKSSW,69.0,1,BEPC_TSP    ,BEPC_ROBERT,31.05340004,-96.49410248
1,OLETHA,138.0,1,BEPC_TSP    ,BEPC       ,31.40139961,-96.42639923
1,FARRAR,138.0,1,BEPC_TSP    ,BEPC_LEON  ,31.38405991,-96.28209686
1,HILTOPLKS8,138.0,1,BEPC_TSP    ,BEPC_LEON  ,31.08060074,-96.22270203
1,HILTOPLKS9,69.0,1,BEPC_TSP    ,BEPC_LEON  ,31.08040047,-96.22250366
1,ELLIOTT,69.0,1,BEPC_TSP    ,BEPC_ROBERT,30.95149994,-96.57579803
1,FRANKLIN,69.0,1,BEPC_TSP    ,BEPC_LEON  ,31.0435009,-96.49230194
1,BRANCHVILE,69.0,1,BEPC_TSP    ,BEPC_MILAM ,30.87380028,-96.69930267
1,MILANO,138.0,1,BEPC_TSP    ,BEPC_MILAM ,30.76399994,-96.86199951
1,SILVERCITY,69.0,1,BEPC_TSP    ,BEPC_MILAM ,30.91670036,-96.92739868
1,BARCLAY,69.0,1,BEPC_TSP    ,BEPC_FALLS ,31.07659912,-97.1147995
1,CALVERTSW,69.0,1,BEPC_TSP    ,BEPC_MILAM ,31.02249908,-96.91680145
1,CALVERT,69.0,1,BEPC_TSP    ,BEPC_MILAM ,31.00930023,-96.80149841
1,BAILEYVILLE,69.0,1,BEPC_TSP    ,BEPC_MILAM ,31.05267906,-96.82859039
1,PLESNTGROV,69.0,1,BEPC_TSP    ,BEPC_FALLS ,31.13150024,-96.90319824
1,KOSSESWCH,69.0,1,BEPC_TSP    ,BEPC       ,31.30050087,-96.60040283
1,BEARGRASS,138.0,1,BEPC_TSP    ,BEPC_LEON  ,31.37689018,-96.20636749
1,KOSSE,69.0,1,BEPC_TSP    ,BEPC       ,31.29940987,-96.53951263
1,PERRY8,138.0,1,BEPC_TSP    ,BEPC_FALLS ,31.44140053,-96.87599945
1,PERRY9,69.0,1,BEPC_TSP    ,BEPC_FALLS ,31.44109917,-96.87550354
1,PETTEWAY,69.0,1,BEPC_TSP    ,BEPC_ROBERT,31.16679955,-96.5243988
1,HALLSBURG,138.0,1,BEPC_TSP    ,BEPC       ,31.52700043,-97.00800323
1,BENHUR,69.0,1,BEPC_TSP    ,BEPC       ,31.50349998,-96.68659973
1,GROESBECK,69.0,1,BEPC_TSP    ,BEPC       ,31.43700027,-96.67700195
1,BUTLER,138.0,1,BEPC_TSP    ,BEPC_FREEST,31.66640091,-95.90650177
1,PRAIRIEHIL,69.0,1,BEPC_TSP    ,BEPC       ,31.69928932,-96.64746094
1,BUCKHOLTS,69.0,1,BEPC_TSP    ,BEPC_MILAM ,30.92330933,-96.83473969
1,BARTLETTSW,69.0,1,BEPC_TSP    ,BEPC_BELL  ,30.80150032,-97.4233017
1,DINGDONG,138.0,1,BEPC_TSP    ,BEPC_BELL  ,30.98900032,-97.76999664
1,SALTY,138.0,1,BEPC_TSP    ,BEPC_MILAM ,30.59749985,-97.13379669
1,CEDARVALLY,138.0,1,BEPC_TSP    ,BEPC_BELL  ,30.93199921,-97.68699646
1,BARTLETT,69.0,1,BEPC_TSP    ,BEPC_BELL  ,30.80200005,-97.42819977
1,TALBRTRIDG,138.0,1,BEPC_TSP    ,BEPC_MILAM ,30.68099976,-96.96900177
1,SONTERRA,138.0,1,BEPC_TSP    ,BEPC       ,30.80249977,-97.60759735
1,SCHWERTNER,69.0,1,BEPC_TSP    ,BEPC_WILLIA,30.79649925,-97.56169891
1,ANDUIN9,69.0,1,BEPC_TSP    ,BEPC_WILLIA,,
1,POAGE,69.0,1,BEPC_TSP    ,BEPC_BELL  ,31.06399918,-97.44000244
1,SEATON8,138.0,1,BEPC_TSP    ,BEPC_BELL  ,31.08130074,-97.28220367
1,SEATON9,69.0,1,BEPC_TSP    ,BEPC_BELL  ,31.08130074,-97.28230286
1,BELLCNTY8,138.0,1,BEPC_TSP    ,BEPC_BELL  ,31.00989914,-97.39360046
1,BELLCNTY9,69.0,1,BEPC_TSP    ,BEPC_BELL  ,31.00989914,-97.39360046
1,TRIMMIER,138.0,1,BEPC_TSP    ,BEPC_BELL  ,31.00699997,-97.68399811
1,MOODY,138.0,1,BEPC_TSP    ,BEPC       ,31.27499962,-97.3789978
1,JUDITH,138.0,1,BEPC_TSP    ,BEPC_MCLENN,31.40010071,-97.39520264
1,LAKEBELTON,138.0,1,BEPC_TSP    ,BEPC_BELL  ,31.14299965,-97.43399811
1,CHAPELHILL,138.0,1,BEPC_TSP    ,BEPC       ,32.08929825,-96.51730347
1,MOFFAT,138.0,1,BEPC_TSP    ,BEPC_BELL  ,31.20700073,-97.43900299
1,TUGTSVILSW,69.0,1,BEPC_TSP    ,BEPC_CORYEL,31.40099907,-97.56796265
1,LEONJUNCTN,69.0,1,BEPC_TSP    ,BEPC_CORYEL,31.34646988,-97.50491333
1,SPRINGVALY,138.0,1,BEPC_TSP    ,BEPC       ,31.37800026,-97.28199768
1,SANTAFESW,69.0,1,BEPC_TSP    ,BEPC_CORYEL,31.43284035,-97.61090088
1,GREENBRIAR,69.0,1,BEPC_TSP    ,BEPC       ,31.45033073,-97.67777252
1,SANTAFE,69.0,1,BEPC_TSP    ,BEPC_CORYEL,31.40402031,-97.646492
1,GATESVILLE,69.0,1,BEPC_TSP    ,BEPC_CORYEL,31.57584,-97.7437973
1,PANCAKE,69.0,1,BEPC_TSP    ,BEPC_CORYEL,31.53820038,-97.79820251
1,MCGREGOR,138.0,1,BEPC_TSP    ,BEPC       ,31.43889999,-97.40299988
1,WINDSORSW,138.0,1,BEPC_TSP    ,BEPC       ,31.49990082,-97.41629791
1,WINDSOR,138.0,1,BEPC_TSP    ,BEPC       ,31.50760078,-97.30110168
1,COTTONBELT,138.0,1,BEPC_TSP    ,BEPC       ,31.4279995,-97.31800079
1,CRAWFORD,138.0,1,BEPC_TSP    ,BEPC       ,31.54030037,-97.40859985
1,CHINASPRGS,138.0,1,BEPC_TSP    ,BEPC       ,31.67300034,-97.3030014
1,BOSQUE,138.0,1,BEPC_TSP    ,BEPC_MCLENN,31.68300056,-97.3769989
1,POTSVIL,69.0,1,BEPC_TSP    ,BEPC_HAMILT,31.67321014,-98.32559204
1,CAYOTE,138.0,1,BEPC_TSP    ,BEPC_BOSQUE,31.81699944,-97.39399719
1,MIDWAY,69.0,1,BEPC_TSP    ,BEPC_FALLS ,31.29290009,-96.99369812
1,NAVAROMILS,69.0,1,BEPC_TSP    ,BEPC       ,31.9197998,-96.65180206
1,DAWSON,69.0,1,BEPC_TSP    ,BEPC       ,31.92785072,-96.56841278
1,TELICO,138.0,1,BEPC_TSP    ,BEPC_ELLIS ,32.3362999,-96.47730255
1,BARRY,69.0,1,BEPC_TSP    ,BEPC       ,32.10359955,-96.66390228
1,PURDON,69.0,1,BEPC_TSP    ,BEPC       ,31.97879982,-96.64189911
1,FREESTONE,69.0,1,BEPC_TSP    ,BEPC_FREEST,31.54640007,-96.24659729
1,FAIRFIELD,138.0,1,BEPC_TSP    ,BEPC_FREEST,31.72742081,-96.17115021
1,EMMETT,69.0,1,BEPC_TSP    ,BEPC       ,31.98049927,-96.80660248
1,BRUSHIE,69.0,1,BEPC_TSP    ,BEPC_NAVARR,32.02130127,-96.81130219
1,CHATFIELD,138.0,1,BEPC_TSP    ,BEPC       ,32.21310043,-96.36830139
1,WINDHMRD,69.0,1,BEPC_TSP    ,BEPC_ELLIS ,32.64728165,-96.88816833
1,SARDIS9,69.0,1,BEPC_TSP    ,BEPC_ELLIS ,32.45819855,-96.8769989
1,SARDIS8,138.0,1,BEPC_TSP    ,BEPC_ELLIS ,32.45830154,-96.87689972
1,BETHEL,69.0,1,BEPC_TSP    ,BEPC_ELLIS ,32.31290054,-96.70359802
1,MALONEY,69.0,1,BEPC_TSP    ,BEPC_ELLIS ,32.29000092,-96.71880341
1,EUREKA,138.0,1,BEPC_TSP    ,BEPC       ,32.03990173,-96.28019714
1,CLAYHILL,138.0,1,BEPC_TSP    ,BEPC       ,31.69627953,-96.23246765
1,REAGORSPRG,69.0,1,BEPC_TSP    ,BEPC_ELLIS ,32.35152054,-96.68685913
1,GOODLOE,138.0,1,BEPC_TSP    ,BEPC       ,32.04259872,-96.20490265
1,WINKLER,138.0,1,BEPC_TSP    ,BEPC_FREEST,31.92900085,-96.13670349
1,HANEY,138.0,1,BEPC_TSP    ,BEPC       ,31.94075012,-96.45612335
1,ROCKETTSW,69.0,1,BEPC_TSP    ,BEPC_ELLIS ,32.39220047,-96.66419983
1,ENNIS,138.0,1,BEPC_TSP    ,BEPC_ELLIS ,32.34730148,-96.56009674
1,GLNHEIGHTS,138.0,1,BEPC_TSP    ,BEPC_ELLIS ,32.53120041,-96.85119629
1,ROCKETT,69.0,1,BEPC_TSP    ,BEPC_ELLIS ,32.45650101,-96.73690033
1,CEDARHILL,138.0,1,BEPC_TSP    ,BEPC_ELLIS ,32.50870132,-96.94190216
1,TRUMBULL8,138.0,1,BEPC_TSP    ,BEPC_ELLIS ,32.49509811,-96.7405014
1,TRUMBULL9,69.0,1,BEPC_TSP    ,BEPC_ELLIS ,32.49509811,-96.74060059
1,SAINTPAUL,138.0,1,BEPC_TSP    ,BEPC_ELLIS ,32.50310135,-97.05989838
1,ITASCA,69.0,1,BEPC_TSP    ,BEPC       ,32.15399933,-97.12159729
1,FORRESTON,69.0,1,BEPC_TSP    ,BEPC_ELLIS ,32.26010132,-96.89299774
1,PEORIA,69.0,1,BEPC_TSP    ,BEPC       ,31.97509956,-97.25520325
1,DWUSSWW,69.0,1,BEPC_TSP    ,BEPC_DALLAS,32.68939972,-96.62840271
1,LAMPOSTSW,138.0,1,BEPC_TSP    ,BEPC       ,31.9557991,-97.28369904
1,CHATT,138.0,1,BEPC_TSP    ,BEPC       ,31.95281982,-97.06194305
1,LAMPOST,138.0,1,BEPC_TSP    ,BEPC       ,31.97459984,-97.35849762
1,BLANTON,138.0,1,BEPC_TSP    ,BEPC       ,32.10010147,-97.3309021
1,WHITNEY5,345.0,1,BEPC_TSP    ,BEPC_BOSQUE,31.86074066,-97.3656311
1,WHITNEY8,138.0,1,BEPC_TSP    ,BEPC_BOSQUE,31.86074066,-97.3656311
1,WHITNEYDM,69.0,1,BEPC_TSP    ,BEPC       ,31.86462021,-97.37145233
1,WHITNEYSW,69.0,1,BEPC_TSP    ,BEPC_BOSQUE,31.86000061,-97.36499786
1,WHITNYSTR,1.0,1,BEPC_TSP    ,BEPC_BOSQUE,31.86079025,-97.3656311
1,WHTNYSTAR,1.0,1,BEPC_TSP    ,BEPC_BOSQUE,31.86074066,-97.36563873
1,BOSQUESW5,345.0,1,BEPC_TSP    ,BEPC_BOSQUE,31.85804939,-97.35999298
1,ROGERSHL,138.0,1,BEPC_TSP    ,BEPC       ,31.74500084,-97.1760025
1,FRTGATESSW,69.0,1,BEPC_TSP    ,BEPC_CORYEL,31.46369934,-97.74160004
1,BOSQUESW8,138.0,1,BEPC_TSP    ,BEPC_BOSQUE,31.85804939,-97.35999298
1,FORTGATES,69.0,1,BEPC_TSP    ,BEPC_CORYEL,31.46538925,-97.72830963
1,HAMILTON,69.0,1,BEPC_TSP    ,BEPC       ,31.70014954,-98.11123657
1,KEMPNER,138.0,1,BEPC_TSP    ,BEPC_LAMPAS,31.09399986,-98.05500031
1,INDIANGAP,69.0,1,BEPC_TSP    ,BEPC       ,31.66460037,-98.41619873
1,ENERGYSW,69.0,1,BEPC_TSP    ,BEPC_COMANC,31.74979973,-98.38770294
1,WARING,69.0,1,BEPC_TSP    ,BEPC_COMANC,31.74180031,-98.37210083
1,ENERGY,69.0,1,BEPC_TSP    ,BEPC_COMANC,31.74340057,-98.373703
1,WAYLND,69.0,1,BEPC_TSP    ,BEPC       ,32.56930161,-98.82920074
1,GUSTINE,69.0,1,BEPC_TSP    ,BEPC_COMANC,31.8178997,-98.34470367
1,HASSE,69.0,1,BEPC_TSP    ,BEPC_COMANC,31.92700005,-98.50499725
1,HASSE8,138.0,1,BEPC_TSP    ,BEPC_COMANC,31.94140053,-98.50509644
1,OLDEN,69.0,1,BEPC_TSP    ,BEPC_EASTLA,32.41902161,-98.75089264
1,LONGBRANCH,138.0,1,BEPC_TSP    ,BEPC_ELLIS ,32.42736053,-96.90167236
1,DOWNING,138.0,1,BEPC_TSP    ,BEPC_COMANC,32.02090073,-98.55180359
1,ZEPHYR,138.0,1,BEPC_TSP    ,BEPC_BROWN ,31.70949936,-98.8615036
1,EARLY,138.0,1,BEPC_TSP    ,BEPC_BROWN ,,
1,GREENCK,138.0,1,BEPC_TSP    ,BEPC_ERATH ,32.15449905,-98.29910278
1,RUCKER,69.0,1,BEPC_TSP    ,BEPC_COMANC,32.21549988,-98.59269714
1,MORGAN,138.0,1,BEPC_TSP    ,BEPC_BOSQUE,32.01876068,-97.60836029
1,SHILOHC,138.0,1,BEPC_TSP    ,BEPC_COMANC,31.89299965,-98.57299805
1,HOLDER8,138.0,1,BEPC_TSP    ,BEPC_BROWN ,31.91329956,-98.97840118
1,STEPHENVIL8,138.0,1,BEPC_TSP    ,BEPC_ERATH ,32.20510101,-98.25710297
1,CARLTON,69.0,1,BEPC_TSP    ,BEPC_ERATH ,31.98340034,-98.18969727
1,JOHNSVILLE,138.0,1,BEPC_TSP    ,BEPC_ERATH ,32.1230011,-97.9489975
1,LINGLEVIL,138.0,1,BEPC_TSP    ,BEPC_ERATH ,32.24060059,-98.3792038
1,SELDEN,138.0,1,BEPC_TSP    ,BEPC_ERATH ,32.18500137,-98.15399933
1,NORFORK,138.0,1,BEPC_TSP    ,BEPC_ERATH ,32.24499893,-98.22200012
1,WRIGHT,138.0,1,BEPC_TSP    ,BEPC_ERATH ,32.26599884,-98.19200134
1,BLUFFDALE,138.0,1,BEPC_TSP    ,BEPC_ERATH ,32.34840012,-98.05400085
1,BUNKER,138.0,1,BEPC_TSP    ,BEPC       ,32.41019821,-97.87090302
1,GRANBURY9,69.0,1,BEPC_TSP    ,BEPC       ,32.4095993,-97.87069702
1,BUNKER9,69.0,1,BEPC_TSP    ,BEPC       ,32.41030121,-97.8707962
1,TOLARTAP,138.0,1,BEPC_TSP    ,BEPC       ,32.39899826,-97.91809845
1,GRBY8,138.0,1,BEPC_TSP    ,BEPC       ,32.40060043,-97.88780212
1,HILLCITY,69.0,1,BEPC_TSP    ,BEPC       ,32.30780029,-97.84010315
1,LONG,138.0,1,BEPC_TSP    ,BEPC_PALOPI,32.6595993,-98.31150055
1,GLENROSE,69.0,1,BEPC_TSP    ,BEPC       ,32.23859024,-97.75707245
1,MERIDIAN,69.0,1,BEPC_TSP    ,BEPC_BOSQUE,31.9200592,-97.64053345
1,JAYBIRD,138.0,1,BEPC_TSP    ,BEPC       ,32.37450027,-98.35420227
1,CRANFILSGP,69.0,1,BEPC_TSP    ,BEPC_BOSQUE,31.90346909,-97.75312805
1,HANNIBAL,138.0,1,BEPC_TSP    ,BEPC_ERATH ,32.3166008,-98.31420135
1,RICOCHET,138.0,1,BEPC_TSP    ,BEPC       ,32.89569855,-98.77899933
1,POWELL,69.0,1,BEPC_TSP    ,BEPC_BOSQUE,31.94437981,-97.56677246
1,RWMILLER,138.0,1,BEPC_TSP    ,BEPC       ,32.65945053,-98.31085968
1,MRSSHPRD,69.0,1,BEPC_TSP    ,BEPC       ,32.87218857,-98.42581177
1,ABBYBEND,138.0,1,BEPC_TSP    ,BEPC       ,32.3348999,-97.67359924
1,PORTROYAL,138.0,1,BEPC_TSP    ,BEPC       ,32.38790131,-97.78610229
1,SPUNKY8,138.0,1,BEPC_TSP    ,BEPC       ,32.31610107,-97.61329651
1,SPUNKY9,69.0,1,BEPC_TSP    ,BEPC       ,32.31539917,-97.61270142
1,HOOD8,138.0,1,BEPC_TSP    ,BEPC       ,32.37950134,-97.72650146
1,JNSNCNTY8,138.0,1,BEPC_TSP    ,BEPC       ,32.39773178,-97.40788269
1,ACTON,138.0,1,BEPC_TSP    ,BEPC       ,32.45479965,-97.73079681
1,FALLCREEK,138.0,1,BEPC_TSP    ,BEPC       ,32.43899918,-97.68319702
1,FRIENDSHIP,138.0,1,BEPC_TSP    ,BEPC_HOOD  ,32.42739868,-97.83630371
1,GEORGESCRK,69.0,1,BEPC_TSP    ,BEPC       ,32.25476837,-97.59172821
1,LITTLEHOSS,138.0,1,BEPC_TSP    ,BEPC       ,32.41939926,-97.56710052
1,NEWHOPE,69.0,1,BEPC_TSP    ,BEPC       ,32.20508957,-97.51528931
1,WLDCATTAP,138.0,1,BEPC_TSP    ,BEPC       ,32.41740036,-97.56199646
1,BONO,138.0,1,BEPC_TSP    ,BEPC       ,32.31430054,-97.52380371
1,CONCORD,345.0,1,BEPC_TSP    ,BEPC       ,32.39170074,-97.48529816
1,CONCORD8,138.0,1,BEPC_TSP    ,BEPC       ,32.39179993,-97.48519897
1,DOMINO,138.0,1,BEPC_TSP    ,BEPC       ,32.43920135,-97.68299866
1,JOSHUA,138.0,1,BEPC_TSP    ,BEPC_JOHNSO,32.46186829,-97.38388062
1,CROWLEY,138.0,1,BEPC_TSP    ,BEPC       ,32.49560165,-97.42430115
1,JESSICA,138.0,1,BEPC_TSP    ,BEPC       ,32.52159882,-97.13999939
1,EGAN,138.0,1,BEPC_TSP    ,BEPC       ,32.4640007,-97.30560303
1,BURLESON,138.0,1,BEPC_TSP    ,BEPC       ,32.5041008,-97.31559753
1,KEENE,138.0,1,BEPC_TSP    ,BEPC       ,32.36600113,-97.33799744
1,LILLIAN8,138.0,1,BEPC_TSP    ,BEPC       ,32.49085999,-97.19503021
1,TOMCAT,138.0,1,BEPC_TSP    ,BEPC_JOHNSO,32.50529861,-97.55889893
1,VALLYBRNCH,138.0,1,BEPC_TSP    ,BEPC       ,32.52090073,-97.23729706
1,RETTA,138.0,1,BEPC_TSP    ,BEPC       ,32.53590012,-97.25730133
1,TIMBERGREN,138.0,1,BEPC_TSP    ,BEPC       ,32.5135994,-97.27619934
1,CONLEY,138.0,1,BEPC_TSP    ,BEPC       ,32.34220123,-97.21489716
1,WILDCAT,138.0,1,BEPC_TSP    ,BEPC       ,32.49959946,-97.55639648
1,LKALVARADO,138.0,1,BEPC_TSP    ,BEPC       ,32.37179947,-97.27890015
1,GRANDVIEW,138.0,1,BEPC_TSP    ,BEPC       ,32.33660126,-97.24009705
1,HIGHPOINT,138.0,1,BEPC_TSP    ,BEPC       ,32.46969986,-97.26889801
1,GRIFFITH,138.0,1,BEPC_TSP    ,BEPC       ,32.4137001,-97.12580109
1,RAILPORT,138.0,1,BEPC_TSP    ,BEPC_ELLIS ,32.43162918,-97.032547
1,SANDFLATSW,138.0,1,BEPC_TSP    ,BEPC       ,32.28590012,-97.29229736
1,COVINGTON,138.0,1,BEPC_TSP    ,BEPC       ,32.22729874,-97.31529999
1,YATES,138.0,1,BEPC_TSP    ,BEPC       ,31.98450089,-97.28450012
1,SANDFLAT,138.0,1,BEPC_TSP    ,BEPC       ,32.2867012,-97.30210114
1,NASSAUBAY,138.0,1,BEPC_TSP    ,BEPC       ,32.42269897,-97.71600342
1,WAPLES8,138.0,1,BEPC_TSP    ,BEPC       ,32.46039963,-97.73400116
1,FAIRVIEW,138.0,1,BEPC_TSP    ,BEPC       ,32.50479889,-97.79689789
1,LAKEWOOD,138.0,1,BEPC_TSP    ,BEPC_HOOD  ,32.4612999,-97.77559662
1,THORPSPRGS,138.0,1,BEPC_TSP    ,BEPC       ,32.45669937,-97.82219696
1,SPOCK138,138.0,4,BEPC_TSP    ,BEPC_HOOD  ,,
1,STOCKTNBND,138.0,1,BEPC_TSP    ,BEPC_HOOD  ,32.4612999,-97.81079865
1,FOX8,138.0,1,BEPC_TSP    ,BEPC       ,32.7159996,-97.93219757
1,FOX9,69.0,1,BEPC_TSP    ,BEPC       ,32.71659851,-97.93060303
1,WSTLOOP,138.0,1,BEPC_TSP    ,BEPC       ,32.73139954,-97.83959961
1,VULCAN,138.0,1,BEPC_TSP    ,BEPC       ,32.61859894,-98.05539703
1,MCFARLAND,138.0,1,BEPC_TSP    ,BEPC_PARKER,32.70249939,-97.60479736
1,SODASPRNGS,69.0,1,BEPC_TSP    ,BEPC       ,32.70130157,-97.97879791
1,ANNETTA,138.0,1,BEPC_TSP    ,BEPC       ,32.66783142,-97.65033722
1,PICARD,138.0,1,BEPC_TSP    ,BEPC_PARKER,32.67250061,-97.63480377
1,BROCK,138.0,1,BEPC_TSP    ,BEPC       ,32.73109818,-97.8730011
1,STHBROCKSW,138.0,1,BEPC_TSP    ,BEPC       ,32.66540146,-97.87409973
1,SOUTHBROCK,138.0,1,BEPC_TSP    ,BEPC       ,32.6739006,-97.93049622
1,TINTOP,138.0,1,BEPC_TSP    ,BEPC       ,32.60319901,-97.86889648
1,RAILROAD,138.0,1,BEPC_TSP    ,BEPC       ,32.74200058,-97.73500061
1,BANKHEAD,138.0,1,BEPC_TSP    ,BEPC_PARKER,32.74177933,-97.71446991
1,LIVEOAK,138.0,1,BEPC_TSP    ,BEPC       ,32.73460007,-97.80090332
1,WTHLVOK,138.0,1,BEPC_TSP    ,PRESIDIO   ,32.73460007,-97.80079651
1,HILLTOP8,138.0,1,BEPC_TSP    ,BEPC       ,32.77830124,-97.69519806
1,WTHFDLK,138.0,1,BEPC_TSP    ,BEPC       ,32.78079987,-97.70349884
1,HILLTOP9,69.0,1,BEPC_TSP    ,BEPC       ,32.77859879,-97.69539642
1,AGNESSWTCH,138.0,1,BEPC_TSP    ,BEPC       ,32.81145859,-97.78845978
1,NRTHWTHFRD,138.0,1,BEPC_TSP    ,BEPC       ,32.78110123,-97.79660034
1,DUBLTRANCH,138.0,1,BEPC_TSP    ,BEPC       ,32.4129982,-97.86869812
1,SHADYGROVE,69.0,1,BEPC_TSP    ,BEPC       ,32.8288002,-97.9050827
1,ZIONHILL,138.0,1,BEPC_TSP    ,BEPC       ,32.83115005,-97.81803894
1,ADVANCE,69.0,1,BEPC_TSP    ,BEPC       ,32.84603119,-97.93173981
1,WHITT,69.0,1,BEPC_TSP    ,BEPC       ,32.92269897,-97.92569733
1,ALEDOSW,138.0,1,BEPC_TSP    ,BEPC       ,32.6822319,-97.60587311
1,ALEDOTAP,138.0,1,BEPC_TSP    ,BEPC       ,32.69577026,-97.60466766
1,HUDSONOAKS,138.0,1,BEPC_TSP    ,BEPC       ,32.76129913,-97.70729828
1,SYLVAN,69.0,1,BEPC_TSP    ,BEPC       ,32.78197098,-97.60701752
1,DICEY,138.0,1,BEPC_TSP    ,BEPC       ,32.79927826,-97.70723724
1,ALEDO,138.0,1,BEPC_TSP    ,BEPC       ,32.6771698,-97.61932373
1,LGVWSS,138.0,1,BEPC_TSP    ,BEPC       ,32.77069855,-97.70459747
1,LGVESS,138.0,1,BEPC_TSP    ,BEPC       ,32.72346878,-97.68496704
1,SPRINGTOWN,138.0,1,BEPC_TSP    ,BEPC       ,32.96390152,-97.67500305
1,FLATROCK,138.0,1,BEPC_TSP    ,BEPC       ,32.87400055,-97.59700012
1,AGNES,138.0,1,BEPC_TSP    ,BEPC       ,32.80339813,-97.78176117
1,FLATROCKSW,138.0,1,BEPC_TSP    ,BEPC       ,32.86999893,-97.59500122
1,VEALJNCTN,138.0,1,BEPC_TSP    ,BEPC       ,32.80699921,-97.86949921
1,CNTERPOINT,138.0,1,BEPC_TSP    ,BEPC       ,32.93519974,-97.54840088
1,RENO,138.0,1,BEPC_TSP    ,BEPC       ,32.95009995,-97.63249969
1,SWIMMER,138.0,1,BEPC_TSP    ,BEPC       ,32.95800018,-97.86199951
1,BRIAR,138.0,1,BEPC_TSP    ,BEPC       ,32.97800064,-97.5490036
1,BOYD,138.0,1,BEPC_TSP    ,BEPC       ,33.02700043,-97.55000305
1,WELLINGTON,138.0,1,BEPC_TSP    ,BEPC       ,32.94680023,-97.3809967
1,GRAPEVINE,138.0,1,BEPC_TSP    ,BEPC       ,32.94010162,-97.08309937
1,IBM,138.0,1,BEPC_TSP    ,BEPC       ,32.95779037,-97.17002869
1,HERITAGE,138.0,1,BEPC_TSP    ,BEPC       ,32.92979813,-97.28250122
1,JOPLIN,138.0,1,BEPC_TSP    ,BEPC       ,33.09360123,-97.99169922
1,SUMRFELD,138.0,1,BEPC_TSP    ,BEPC       ,32.87670135,-97.30789948
1,KELLER,138.0,1,BEPC_TSP    ,BEPC       ,32.92058945,-97.25657654
1,CHERRYGROV,138.0,1,BEPC_TSP    ,BEPC       ,32.90499878,-97.22450256
1,PEDENROAD,138.0,1,BEPC_TSP    ,BEPC       ,32.94079971,-97.45429993
1,WISECNTY,138.0,1,BEPC_TSP    ,BEPC       ,33.22900009,-97.76959991
1,HIDEOUT,138.0,1,BEPC_TSP    ,BEPC_WISE  ,33.11869812,-97.86009979
1,AURORA,138.0,1,BEPC_TSP    ,BEPC       ,33.04698181,-97.55692291
1,NEWARK,138.0,1,BEPC_TSP    ,BEPC       ,33.04100037,-97.52300262
1,JCKCNTY5,345.0,1,BEPC_TSP    ,BEPC       ,33.10493851,-97.96562958
1,RHOME,138.0,1,BEPC_TSP    ,BEPC       ,33.07649994,-97.47409821
1,ALLISON,138.0,1,BEPC_TSP    ,BEPC       ,33.20679855,-97.4190979
1,JCKCNTY8,138.0,1,BEPC_TSP    ,BEPC       ,33.1014595,-97.95543671
1,WSTBROOK,138.0,1,BEPC_TSP    ,BEPC       ,33.06299973,-97.93009949
1,DECATUR,138.0,1,BEPC_TSP    ,BEPC       ,33.21445847,-97.58722687
1,WOODIE,138.0,1,BEPC_TSP    ,BEPC       ,33.17839813,-97.54650116
1,CHISOLM,138.0,1,BEPC_TSP    ,BEPC       ,33.07720184,-97.45469666
1,GREENWOOD,138.0,1,BEPC_TSP    ,BEPC       ,33.35100174,-97.46520233
1,WILLOW,138.0,1,BEPC_TSP    ,BEPC       ,33.0530014,-97.91100311
1,PERCHHILL,138.0,1,BEPC_TSP    ,BEPC       ,33.2765007,-97.79799652
1,KEETER,138.0,1,BEPC_TSP    ,BEPC       ,33.02529907,-97.68650055
1,COTTONDALE,138.0,1,BEPC_TSP    ,BEPC       ,33.06430054,-97.71690369
1,ELNA,138.0,1,BEPC_TSP    ,BEPC       ,33.13679123,-97.49196625
1,BRIDGEPORT,138.0,1,BEPC_TSP    ,BEPC       ,33.20080185,-97.82820129
1,EBRIDGPORT,138.0,1,BEPC_TSP    ,BEPC       ,33.2181015,-97.7335968
1,AVONDALE,138.0,1,BEPC_TSP    ,BEPC_DENTON,33.0304985,-97.3506012
1,OKPNTSS2,138.0,1,BEPC_TSP    ,BEPC_DENTON,33.2663002,-96.98470306
1,CRAFTON,138.0,1,BEPC_TSP    ,BEPC       ,33.37200165,-97.88690186
1,PATTSNST,138.0,1,BEPC_TSP    ,BEPC_MONTAG,33.56110001,-97.82430267
1,BRDGTAP,138.0,1,BEPC_TSP    ,BEPC       ,33.23109818,-97.63040161
1,CARTER,138.0,1,BEPC_TSP    ,BEPC_MONTAG,33.46706009,-97.89541626
1,LONESTAR,138.0,1,BEPC_TSP    ,BEPC       ,33.36835098,-97.68956757
1,BOWIE8,138.0,1,BEPC_TSP    ,BEPC_MONTAG,33.57009888,-97.79109955
1,BOWIE9,69.0,1,BEPC_TSP    ,BEPC_MONTAG,33.57009888,-97.79109955
1,OAKPOINT,138.0,1,BEPC_TSP    ,BEPC_DENTON,33.19490051,-96.97029877
1,CRAIGRANCH,138.0,1,BEPC_TSP    ,BEPC_COLLIN,33.14929962,-96.67520142
1,CRAIGRNCH2,138.0,1,BEPC_TSP    ,BEPC_COLLIN,33.14810181,-96.67469788
1,SPRINGCRK,138.0,1,BEPC_TSP    ,BEPC_DENTON,33.06850052,-96.84529877
1,ROMANJUAREZ,138.0,1,BEPC_TSP    ,BEPC_COLLIN,33.15829849,-96.84159851
1,NEWPORT,138.0,1,BEPC_TSP    ,BEPC_MONTAG,33.51150131,-97.95300293
1,JOHNSONSW,69.0,1,BEPC_TSP    ,BEPC_MONTAG,33.60689926,-97.82440186
1,AUDUBONSW,138.0,1,BEPC_TSP    ,BEPC       ,33.27429962,-97.58319855
1,AUDUBON,138.0,1,BEPC_TSP    ,BEPC       ,33.38410187,-97.67340088
1,JOHNSON,69.0,1,BEPC_TSP    ,BEPC_MONTAG,33.68460083,-97.83450317
1,ROSEMARY,138.0,1,BEPC_TSP    ,BEPC_DENTON,33.03829956,-97.40979767
1,ROANOKE,138.0,1,BEPC_TSP    ,BEPC_DENTON,32.99100113,-97.26499939
1,STNBRK,138.0,1,BEPC_TSP    ,BEPC_DENTON,33.13137817,-96.82518768
1,REDBUD,138.0,1,BEPC_TSP    ,BEPC_COLLIN,33.23622894,-96.80110931
1,LEWISVLSW8_1,138.0,1,BEPC_TSP    ,BEPC_DENTON,33.06570053,-97.00982666
1,LEWISVLSW5_1,345.0,1,BEPC_TSP    ,BEPC_DENTON,33.06570053,-97.00982666
1,COPPELL,138.0,1,BEPC_TSP    ,BEPC_DALLAS,32.94900131,-97.00800323
1,PNTHRCREEK,138.0,1,BEPC_TSP    ,BEPC_DENTON,33.20399857,-96.87400055
1,LEBANON,138.0,1,BEPC_TSP    ,BEPC_COLLIN,33.11100006,-96.77500153
1,AUBREY,138.0,1,BEPC_TSP    ,BEPC_DENTON,33.30500031,-96.99700165
1,CUSTER2,138.0,1,BEPC_TSP    ,BEPC_COLLIN,33.15980148,-96.75250244
1,PARVIN,138.0,1,BEPC_TSP    ,BEPC_DENTON,33.25344849,-96.8702774
1,CUSTER,138.0,1,BEPC_TSP    ,BEPC_COLLIN,33.15999985,-96.75229645
1,MOUND,138.0,1,BEPC_TSP    ,BEPC_DENTON,32.97449875,-97.01129913
1,KIMBALROAD,138.0,1,BEPC_TSP    ,BEPC       ,32.97040176,-97.14279938
1,MCKAMY,138.0,1,BEPC_TSP    ,BEPC_DENTON,33.01399994,-97.07559967
1,BRIDGES,138.0,1,BEPC_TSP    ,BEPC_DENTON,33.12310028,-96.85990143
1,LEWISVILLE,138.0,1,BEPC_TSP    ,BEPC_DENTON,33.06399918,-97.01200104
1,CROSTIMBRS,138.0,1,BEPC_TSP    ,BEPC_DENTON,32.95869827,-97.19709778
1,NAVO,138.0,1,BEPC_TSP    ,BEPC_DENTON,33.2211113,-96.91786194
1,HEBRON,138.0,1,BEPC_TSP    ,BEPC_DENTON,33.04829025,-96.90397644
1,HIGHLND,138.0,1,BEPC_TSP    ,BEPC_DENTON,33.07220078,-97.03530121
1,CRNTHSTHSW,138.0,1,BEPC_TSP    ,BEPC_DENTON,33.1330986,-97.07749939
1,CRNTHSTHSW2,138.0,1,BEPC_TSP    ,BEPC_DENTON,33.13629913,-97.05802155
1,CANYON,138.0,1,BEPC_TSP    ,BEPC_DENTON,33.09420013,-97.08943176
1,KRUM,138.0,1,BEPC_TSP    ,BEPC_DENTON,33.22129822,-97.26129913
1,RECTORROAD,138.0,1,BEPC_TSP    ,BEPC_DENTON,33.32339859,-97.19139862
1,ROCKHILL,138.0,1,BEPC_TSP    ,BEPC       ,33.20320129,-96.79309845
1,JOSEY1,138.0,1,BEPC_TSP    ,BEPC       ,33.05049896,-96.86250305
1,JOSEY2,138.0,1,BEPC_TSP    ,BEPC       ,33.0719986,-96.87169647
1,MCPHERSON,138.0,1,BEPC_TSP    ,BEPC_DENTON,32.94210052,-97.2559967
1,NRTHSANGER,138.0,1,BEPC_TSP    ,BEPC_DENTON,33.37009811,-97.18640137
1,FRISCO,138.0,1,BEPC_TSP    ,BEPC_COLLIN,33.18500137,-96.82900238
1,SPRING,138.0,1,BEPC_TSP    ,BEPC_COOKE ,33.48740005,-97.18260193
1,LEO,138.0,1,BEPC_TSP    ,BEPC       ,33.42356873,-97.31079865
1,GRASLNDS,138.0,1,BEPC_TSP    ,BEPC       ,33.31389999,-97.52839661
1,WESTBEND,138.0,1,BEPC_TSP    ,BEPC       ,32.96490097,-97.26300049
1,MYRA,138.0,1,BEPC_TSP    ,BEPC_COOKE ,33.64810181,-97.36009979
1,VALLEYVIEW,138.0,1,BEPC_TSP    ,BEPC_COOKE ,33.52069855,-97.21099854
1,MUENSTER,138.0,2,BEPC_TSP    ,BEPC_COOKE ,33.64810181,-97.36389923
1,SALEM,138.0,1,BEPC_TSP    ,BEPC_COOKE ,33.54959869,-96.99919891
1,MTNSPRNGS,138.0,1,BEPC_TSP    ,BEPC_COOKE ,33.49459839,-97.04750061
1,HAWKINS9,69.0,1,BEPC_TSP    ,BEPC_COOKE ,33.63510132,-97.00389862
1,WOODBINE,69.0,1,BEPC_TSP    ,BEPC_COOKE ,33.61370087,-97.04219818
1,HAWKINS8,138.0,1,BEPC_TSP    ,BEPC_COOKE ,33.63290024,-97.00559998
1,KIOWA,138.0,1,BEPC_TSP    ,BEPC_COOKE ,33.54719925,-97.03659821
1,WHTSBRSWST,138.0,1,BEPC_TSP    ,BEPC_GRAYSO,33.65110016,-96.91449738
1,SLTCRKRCTR,138.0,1,BEPC_TSP    ,BEPC_KENT  ,33.22940063,-100.8802032
1,JORDAN,138.0,1,BEPC_TSP    ,BEPC_GRAYSO,33.62879944,-96.89920044
1,SMSSW,69.0,1,BEPC_TSP    ,BEPC_KENT  ,33.31665039,-100.7659988
1,SIVLSBNDSW,69.0,1,BEPC_TSP    ,BEPC_COOKE ,33.70080185,-97.19999695
1,GAINESVILL,69.0,1,BEPC_TSP    ,BEPC_COOKE ,33.62110138,-97.08200073
1,SIVELSBEND,69.0,1,BEPC_TSP    ,BEPC_COOKE ,33.79550171,-97.22910309
1,SCURRYSWCH,138.0,1,BEPC_TSP    ,BEPC_SCURRY,32.87118149,-100.9749985
1,WOLFRIDGE,138.0,1,BEPC_TSP    ,BEPC_COOKE ,33.66260147,-97.43440247
1,SLTCRKSW,138.0,1,BEPC_TSP    ,BEPC       ,33.22779846,-100.8779984
1,PADUCAH,69.0,1,BEPC_TSP    ,BEPC_COTTLE,34.01470184,-100.2994003
1,MCADAMS,69.0,1,BEPC_TSP    ,BEPC       ,33.95489883,-100.0401001
1,REDRIVER,69.0,1,BEPC_TSP    ,BEPC_COOKE ,33.68299866,-97.15789795
1,COPPERBRKS,69.0,1,BEPC_TSP    ,BEPC       ,33.9822998,-99.74160004
1,SMS,69.0,1,BEPC_TSP    ,BEPC_KENT  ,33.29660034,-100.7758026
1,SINCLAIRSW,69.0,1,BEPC_TSP    ,BEPC_COOKE ,33.68109894,-97.07900238
1,HENRY,69.0,1,BEPC_TSP    ,BEPC_CHILDR,34.38150024,-99.97988892
1,DYEMOUND,138.0,1,BEPC_TSP    ,BEPC_MONTAG,33.62480164,-97.62000275
1,SINCLAIR,69.0,1,BEPC_TSP    ,BEPC_COOKE ,33.69129944,-97.0848999
1,SALTCREEK,138.0,1,BEPC_TSP    ,BEPC_KENT  ,33.23149872,-100.8699036
1,WALNUTBEND,69.0,1,BEPC_TSP    ,BEPC_COOKE ,33.77360153,-97.0644989
1,KING,69.0,1,BEPC_TSP    ,BEPC_KING  ,33.51990128,-100.1567001
1,STJO8,138.0,1,BEPC_TSP    ,BEPC_MONTAG,33.67959976,-97.48200226
1,KALGARY,69.0,1,BEPC_TSP    ,BEPC_CROSBY,33.36130142,-100.8528976
1,JAYTON,69.0,1,BEPC_TSP    ,BEPC_KENT  ,33.27259827,-100.626297
1,STJO9,69.0,1,BEPC_TSP    ,BEPC_MONTAG,33.67959976,-97.48190308
1,ESPUELA,69.0,1,BEPC_TSP    ,BEPC_DICKEN,33.54410172,-100.8971024
1,CLAIRMONT,138.0,1,BEPC_TSP    ,BEPC_KENT  ,33.20740128,-100.8671036
1,BISSETT,69.0,1,BEPC_TSP    ,BEPC_STONEW,33.35169983,-100.2099991
1,CAPSCORNER,69.0,1,BEPC_TSP    ,BEPC_MONTAG,33.80120087,-97.50789642
1,ASPERMONT,69.0,1,BEPC_TSP    ,BEPC_STONEW,33.17839813,-100.2337036
1,NOCONA,69.0,1,BEPC_TSP    ,BEPC_MONTAG,33.88999939,-97.62969971
1,ALCORN,69.0,1,BEPC_TSP    ,BEPC_MONTAG,33.92039871,-97.68209839
1,HARDYSW,138.0,1,BEPC_TSP    ,BEPC_MONTAG,33.64030075,-97.57649994
1,ROCHESTER,69.0,1,BEPC_TSP    ,BEPC_HASKEL,33.31492996,-99.85191345
1,MUNDAY,69.0,1,BEPC_TSP    ,BEPC       ,33.43431091,-99.62320709
1,KNOX,69.0,1,BEPC_TSP    ,BEPC_HASKEL,33.3517189,-99.77075195
1,HARDY,138.0,1,BEPC_TSP    ,BEPC_MONTAG,33.57740021,-97.52279663
1,JOY,69.0,1,BEPC_TSP    ,BEPC_CLAY  ,33.59590149,-98.21469879
1,POSTOAKSW,69.0,1,BEPC_TSP    ,BEPC_CLAY  ,33.55070114,-98.27929688
1,ARROWHEAD,138.0,1,BEPC_TSP    ,BEPC_ARCHER,33.79560089,-98.48310089
1,POSTOAK,69.0,1,BEPC_TSP    ,BEPC_JACK  ,33.44509888,-98.19629669
1,SHANNON,69.0,1,BEPC_TSP    ,BEPC_CLAY  ,33.49649811,-98.36109924
1,SCOTLAND,138.0,1,BEPC_TSP    ,BEPC_ARCHER,33.65480042,-98.48320007
1,KATZ,69.0,1,BEPC_TSP    ,BEPC_KING  ,33.39720154,-100.0102997
1,BRIDWELL,69.0,1,BEPC_TSP    ,BEPC_ARCHER,33.4966011,-98.50980377
1,SEYMOUR,69.0,1,BEPC_TSP    ,BEPC_BAYLOR,33.59550095,-99.25460052
1,ELBERT,69.0,1,BEPC_TSP    ,BEPC       ,33.29040146,-98.98719788
1,ELBERTSW,69.0,1,BEPC_TSP    ,BEPC       ,33.36539841,-98.92379761
1,LAKEKEMPSW,69.0,1,BEPC_TSP    ,BEPC_BAYLOR,33.53749847,-99.1651001
1,LAKEKEMP,69.0,1,BEPC_TSP    ,BEPC_BAYLOR,33.74309921,-99.14250183
1,WESTOVER,69.0,1,BEPC_TSP    ,BEPC_BAYLOR,33.49869919,-99.02010345
1,ORAN,69.0,1,BEPC_TSP    ,BEPC       ,32.93489838,-98.14600372
1,OLNEY8,138.0,1,BEPC_TSP    ,BEPC       ,33.36349869,-98.77629852
1,OLNEY9,69.0,1,BEPC_TSP    ,BEPC       ,33.36339951,-98.77629852
1,JEAN,69.0,1,BEPC_TSP    ,BEPC       ,33.2181015,-98.61930084
1,MURRAY,138.0,1,BEPC_TSP    ,BEPC       ,33.14981079,-98.95471191
1,STHBENDSW,69.0,1,BEPC_TSP    ,BEPC       ,33.02149963,-98.48750305
1,SOUTHBEND,69.0,1,BEPC_TSP    ,BEPC       ,33.0163002,-98.53279877
1,GYP9,69.0,1,BEPC_TSP    ,BEPC_KING  ,33.40359879,-99.83319855
1,APOLLO,138.0,1,GRLNDTSP    ,GARLAND    ,32.9538002,-96.67780304
1,RAYTHEON,69.0,1,GRLNDTSP    ,GARLAND    ,32.89569855,-96.6812973
1,FAIRDALE,138.0,1,GRLNDTSP    ,GARLAND    ,32.91365051,-96.66171265
1,JUPITER,138.0,1,GRLNDTSP    ,GARLAND    ,32.9341011,-96.67970276
1,PRAXAIR,69.0,1,GRLNDTSP    ,GARLAND    ,32.88959885,-96.67369843
1,PLASTIPAK,138.0,1,GRLNDTSP    ,GARLAND    ,32.90729904,-96.67420197
1,OAKLAND,138.0,1,GRLNDTSP    ,GARLAND    ,32.88629913,-96.66560364
1,CENTRVIL,138.0,1,GRLNDTSP    ,GARLAND    ,32.8708992,-96.6344986
1,NEVADA,138.0,1,GRLNDTSP    ,GARLAND    ,33.02899933,-96.35720062
1,SWINDELL,138.0,1,GRLNDTSP    ,GARLAND    ,33.14289856,-96.23400116
1,WYNNJOYCE,138.0,1,GRLNDTSP    ,GARLAND    ,32.86547089,-96.60163116
1,OLINGER_9,69.0,1,GRLNDTSP    ,GARLAND    ,33.06766129,-96.45147705
1,ROSEHILL,138.0,1,GRLNDTSP    ,GARLAND    ,32.85020065,-96.58529663
1,OLINGER,138.0,1,GRLNDTSP    ,GARLAND    ,33.06766129,-96.45147705
1,LYONS,138.0,1,GRLNDTSP    ,GARLAND    ,32.84516144,-96.56916046
1,FIREWHEEL,138.0,1,GRLNDTSP    ,GARLAND    ,32.98120117,-96.64040375
1,PRAXAIRT,69.0,1,GRLNDTSP    ,GARLAND    ,32.89120102,-96.6760025
1,WALNUT,138.0,1,GRLNDTSP    ,GARLAND    ,32.91650009,-96.63159943
1,MILLER,138.0,1,GRLNDTSP    ,GARLAND    ,32.89459991,-96.60230255
1,NAAMAN,138.0,1,GRLNDTSP    ,GARLAND    ,32.95569992,-96.63819885
1,BRAND,138.0,1,GRLNDTSP    ,GARLAND    ,32.95225906,-96.63771057
1,LOOKOUT,138.0,1,GRLNDTSP    ,GARLAND    ,32.9836998,-96.65879822
1,COLLEGE8,138.0,1,GRLNDTSP    ,GARLAND    ,32.91379929,-96.66220093
1,SHILOH,138.0,1,GRLNDTSP    ,GARLAND    ,32.90000153,-96.66799927
1,OATES,138.0,1,GRLNDTSP    ,GARLAND    ,32.84540176,-96.61380005
1,MCCREE9,69.0,1,GRLNDTSP    ,GARLAND    ,32.87260056,-96.66339874
1,WYLIESW,138.0,1,GRLNDTSP    ,GARLAND    ,33.0177002,-96.41880035
1,MCCREE8,138.0,1,GRLNDTSP    ,GARLAND    ,32.87260056,-96.66329956
1,HOLFORD,138.0,1,GRLNDTSP    ,GARLAND    ,33.01620102,-96.61650085
1,FOREST,138.0,1,GRLNDTSP    ,GARLAND    ,32.91419983,-96.66139984
1,DENTSW,138.0,1,GRLNDTSP    ,GARLAND    ,33.09880066,-96.12449646
1,CAMPBELLSW,138.0,1,GRLNDTSP    ,GARLAND    ,32.98619843,-96.64649963
1,DENTSW9,69.0,1,GRLNDTSP    ,GARLAND    ,33.09880066,-96.12449646
1,DENTSW12,12.5,1,GRLNDTSP    ,GARLAND    ,33.09880066,-96.12449646
1,DENTSW1,1.0,1,GRLNDTSP    ,GARLAND    ,33.09880066,-96.12449646
1,GPL_KINGMTSW,345.0,1,GRLNDTSP    ,GARLAND    ,31.20420074,-102.2003021
1,GPL_KINGMTTP,345.0,1,GRLNDTSP    ,GARLAND    ,31.20400047,-102.1999969
1,GPL_NEVILLSW,345.0,1,GRLNDTSP    ,GARLAND    ,31.01536942,-102.2618027
1,GPL_GIRVINTP,345.0,1,GRLNDTSP    ,GARLAND    ,31.01499939,-102.2610016
1,LOOKOUT3,36.0,1,GRLNDTSP    ,GARLAND    ,32.9836998,-96.65879822
1,LOOKOUT4_T1,4.16,1,GRLNDTSP    ,GARLAND    ,32.9836998,-96.65879822
1,MARQUIS,138.0,1,GRLNDTSP    ,GARLAND    ,32.90219879,-96.67759705
1,NEWMAN8,138.0,1,GRLNDTSP    ,GARLAND    ,32.91362,-96.62451172
1,CRIST,138.0,1,GRLNDTSP    ,GARLAND    ,32.93719101,-96.62481689
1,MARQUIS9,69.0,1,GRLNDTSP    ,GARLAND    ,32.90250015,-96.67759705
1,SHILOHTP,69.0,1,GRLNDTSP    ,GARLAND    ,32.90200043,-96.66400146
1,SHILOH9,69.0,1,GRLNDTSP    ,GARLAND    ,32.90050125,-96.66670227
1,ELMGROVE,138.0,1,GRLNDTSP    ,GARLAND    ,32.96279907,-96.53269958
1,MILLWOOD,138.0,1,GRLNDTSP    ,GARLAND    ,33.01259995,-96.42120361
1,858,1.0,1,GRLNDTSP    ,GARLAND    ,32.9836998,-96.65879822
1,GPL_GIRVINSW,345.0,1,GRLNDTSP    ,GARLAND    ,31.01499939,-102.2610016
1,KINGSROW138,138.0,1,DENTNTSP    ,DENTON     ,33.24860001,-97.10510254
1,JCHRSTL,138.0,1,DENTNTSP    ,DENTON     ,33.2201004,-97.2111969
1,POES31569,69.0,1,DENTNTSP    ,DENTON     ,33.20330048,-97.11820221
1,POLE_SP169,69.0,1,DENTNTSP    ,DENTON     ,33.20330048,-97.11820221
1,POLESPL269,69.0,4,DENTNTSP    ,DENTON     ,33.19620132,-97.12149811
1,COOPERCK,138.0,1,DENTNTSP    ,DENTON     ,33.22520065,-97.09269714
1,MCKINNEY,138.0,1,DENTNTSP    ,DENTON     ,33.21384048,-97.10282135
1,SPNCR_SW69,69.0,1,DENTNTSP    ,DENTON     ,33.19792938,-97.10713196
1,JCHRSTL_LD,138.0,1,DENTNTSP    ,DENTON     ,33.22029877,-97.21160126
1,POCKRUS138,138.0,1,DENTNTSP    ,DENTON     ,33.1719017,-97.0848999
1,TEASLEY138,138.0,1,DENTNTSP    ,DENTON     ,33.14472961,-97.1082077
1,FTWORTH,138.0,1,DENTNTSP    ,DENTON     ,33.13515854,-97.12599945
1,SPNCRGEN69,69.0,1,GRLNDTSP    ,GARLAND    ,33.19792938,-97.10713196
1,WOODROW138,138.0,1,DENTNTSP    ,DENTON     ,33.19960022,-97.10119629
1,HK_GIS,138.0,1,DENTNTSP    ,DENTON     ,33.21269989,-97.15940094
1,ARCO138,138.0,1,DENTNTSP    ,DENTON     ,33.22919846,-97.07219696
1,LOCUST138,138.0,1,DENTNTSP    ,DENTON     ,33.20240021,-97.13469696
1,BRINKER138,138.0,1,DENTNTSP    ,DENTON     ,33.1958313,-97.09658051
1,NLAKES,138.0,1,DENTNTSP    ,DENTON     ,33.25019836,-97.15869904
1,RDWELLS138,138.0,1,DENTNTSP    ,DENTON     ,33.20800018,-97.18170166
1,BONBRAE138,138.0,1,DENTNTSP    ,DENTON     ,33.22779846,-97.16169739
1,RDWELLS69,69.0,1,DENTNTSP    ,DENTON     ,33.20800018,-97.18170166
1,MASCHBRANCH,138.0,1,DENTNTSP    ,DENTON     ,33.25600052,-97.20490265
1,DIESEL_D,69.0,1,GRNVLTSP    ,GRNVILLE   ,33.16960144,-96.12640381
1,STEAM_D,69.0,1,GRNVLTSP    ,GRNVILLE   ,33.17150116,-96.12793732
1,LTV_D,69.0,1,GRNVLTSP    ,GRNVILLE   ,33.07857895,-96.07647705
1,TERREL_D,69.0,1,GRNVLTSP    ,GRNVILLE   ,33.10673904,-96.12111664
1,IND_PK_D,69.0,1,GRNVLTSP    ,GRNVILLE   ,33.11970139,-96.16459656
1,MAMIE_D,69.0,1,GRNVLTSP    ,GRNVILLE   ,33.09941864,-96.06455994
1,DENT_RD_D,69.0,1,GRNVLTSP    ,GRNVILLE   ,33.07852173,-96.09906006
1,ONEAL_D,69.0,1,GRNVLTSP    ,GRNVILLE   ,33.12916183,-96.13329315
1,DIESELA,13.0,1,GRNVLTSP    ,GRNVILLE   ,33.17079926,-96.12760162
1,BENDAVIS_1_1,1.0,1,TMPA_TSP    ,TMPA       ,32.95600128,-96.60900116
1,BENDAVIS_1_2,1.0,1,TMPA_TSP    ,TMPA       ,32.95800018,-96.61499786
1,GIBN_CRK_1_1,1.0,1,TMPA_TSP    ,TMPA       ,30.62261009,-96.08196259
1,GREENV_IN_T2,13.2,1,TMPA_TSP    ,TMPA       ,33.08184052,-96.10954285
1,GREENV_IN_T1,13.2,1,TMPA_TSP    ,TMPA       ,33.08184052,-96.10954285
1,GIBN_CRK_1_3,1.0,1,TMPA_TSP    ,TMPA       ,30.62261009,-96.08196259
1,SHELBY1,138.0,1,TMPA_TSP    ,TMPA       ,33.11285019,-96.13507843
1,SHELBY2,69.0,1,TMPA_TSP    ,TMPA       ,33.11285019,-96.13507843
1,SHELBY3,12.5,1,TMPA_TSP    ,TMPA       ,33.11285019,-96.13507843
1,GIBN_CREK_8,138.0,1,TMPA_TSP    ,TMPA       ,30.62261009,-96.08196259
1,GIBN_CREK_T1,12.4,1,TMPA_TSP    ,TMPA       ,30.62269974,-96.08145905
1,GIBN_CREK_T2,22.0,1,TMPA_TSP    ,TMPA       ,30.62261009,-96.08196259
1,GIBN_CREK_5,345.0,1,TMPA_TSP    ,TMPA       ,30.62261009,-96.08196259
1,BENDAVIS_8,138.0,1,TMPA_TSP    ,TMPA       ,32.95899963,-96.61199951
1,GIBN_CREK_T3,12.4,1,TMPA_TSP    ,TMPA       ,30.62261009,-96.08196259
1,BENDAVIS_5,345.0,1,TMPA_TSP    ,TMPA       ,32.95899963,-96.61000061
1,PRUITT_8,138.0,1,TMPA_TSP    ,TMPA       ,33.1507988,-96.21089935
1,W_DENT_T2,12.4,1,TMPA_TSP    ,TMPA       ,33.17544174,-97.21859741
1,MCCREE_5,345.0,1,TMPA_TSP    ,TMPA       ,32.87260056,-96.66329956
1,MCCREE1_T1,12.5,1,TMPA_TSP    ,TMPA       ,32.86899948,-96.66400146
1,JKCREEK1,345.0,1,TMPA_TSP    ,TMPA       ,30.85853958,-96.2590332
1,GREENV2_IN_9,69.0,1,TMPA_TSP    ,TMPA       ,33.08184052,-96.10954285
1,GREENV_IN_8,138.0,1,TMPA_TSP    ,TMPA       ,33.16680145,-96.17169952
1,JKCREEK3,12.5,1,TMPA_TSP    ,TMPA       ,30.86199951,-96.26000214
1,GREENV_IN_9,69.0,1,TMPA_TSP    ,TMPA       ,33.08184052,-96.10954285
1,GIBN_CRK_1_2,1.0,1,TMPA_TSP    ,TMPA       ,30.62261009,-96.08196259
1,SPNCRINT69,69.0,1,DENTNTSP    ,DENTON     ,33.19680023,-97.10489655
1,DN_STEAM_8,138.0,1,TMPA_TSP    ,TMPA       ,33.19680023,-97.10489655
1,MCCREE2_T2,12.5,1,GRLNDTSP    ,GARLAND    ,32.86999893,-96.66400146
1,W_DENT_T1,12.4,1,TMPA_TSP    ,TMPA       ,33.17544174,-97.21859741
1,N_DENT_8,138.0,1,TMPA_TSP    ,TMPA       ,33.25479889,-97.13269806
1,W_DENT_8,138.0,1,TMPA_TSP    ,TMPA       ,33.17544174,-97.21859741
1,GREENV_IN_1,1.0,1,TMPA_TSP    ,TMPA       ,33.16699982,-96.17179871
1,W_DENT_5,345.0,1,TMPA_TSP    ,TMPA       ,33.17544937,-97.21859741
1,GREENV_IN_2,1.0,1,TMPA_TSP    ,TMPA       ,33.16699982,-96.17179871
1,SABINECRKTAP,138.0,1,TMPA_TSP    ,TMPA       ,33.03699875,-96.31210327
1,BENDAVIS_T1,12.5,1,TMPA_TSP    ,TMPA       ,32.95700073,-96.61000061
1,BENDAVIS_T2,12.5,1,TMPA_TSP    ,TMPA       ,32.95700073,-96.61000061
1,SHELBY_1,1.0,1,TMPA_TSP    ,TMPA       ,33.11285019,-96.13507843
1,W_DENT_1,1.0,1,TMPA_TSP    ,TMPA       ,33.17544174,-97.21859741
1,W_DENT_2,1.0,1,TMPA_TSP    ,TMPA       ,33.17544174,-97.21859741
1,JCREEK_1,1.0,1,TMPA_TSP    ,TMPA       ,30.85853958,-96.2590332
1,AROYA_8,138.0,1,ONCOR_ED    ,O_WARD     ,31.56649971,-102.9307022
1,YUCCADR_8,138.0,1,ONCOR_ED    ,O_WARD     ,31.58499908,-102.9630966
1,PERMIANB_8,138.0,1,ONCOR_ED    ,O_WARD     ,31.58769989,-102.9546967
1,HORSHEADRW_8,138.0,1,ONCOR_ED    ,O_WINKLER  ,31.70512962,-103.5992966
1,PIRCOVE_8,138.0,1,ONCOR_ED    ,O_WINKLER  ,31.51670074,-103.3946991
1,WOLFSS_8,138.0,1,ONCOR_ED    ,O_WARD     ,31.60169983,-102.9628983
1,MIDLNDE_3,12.0,1,ONCOR_ED    ,O_MIDLAND  ,32.01839828,-102.0505981
1,ODEHV3T_5,345.0,1,ONCOR_ED    ,O_ECTOR    ,31.83390999,-102.3264008
1,MOSS_5,345.0,1,ONCOR_ED    ,O_ECTOR    ,31.81300926,-102.4955978
1,MOSS_8,138.0,1,ONCOR_ED    ,O_ECTOR    ,31.81300926,-102.4955978
1,ODEHV1T_5,345.0,1,ONCOR_ED    ,O_ECTOR    ,31.83390999,-102.3264008
1,MIDLET_5,345.0,1,ONCOR_ED    ,O_MIDLAND  ,32.02099991,-102.0524979
1,MIDLNDE_5,345.0,1,ONCOR_ED    ,O_MIDLAND  ,32.01990128,-102.0521011
1,MIDLNDE_8,138.0,1,ONCOR_ED    ,O_MIDLAND  ,32.01990128,-102.0533981
1,FSCOGEN_8,138.0,1,ONCOR_ED    ,O_HOWARD   ,32.26996994,-101.4367981
1,FSCOGEN_5,345.0,1,ONCOR_ED    ,O_HOWARD   ,32.26996994,-101.4367981
1,ODEHV2T_5,345.0,1,ONCOR_ED    ,O_ECTOR    ,31.83390999,-102.3264008
1,ODESEHV_8,138.0,1,ONCOR_ED    ,O_ECTOR    ,31.8339901,-102.3264008
1,ODEHVC_5,345.0,1,ONCOR_ED    ,O_ECTOR    ,31.83390999,-102.3264008
1,ODEHVD_5,345.0,1,ONCOR_ED    ,O_ECTOR    ,31.83390999,-102.3264008
1,MRGNCRK_5,345.0,1,ONCOR_ED    ,O_MITCHELL ,32.33366013,-100.9135971
1,MRGNCRK_8,138.0,1,ONCOR_ED    ,O_MITCHELL ,32.33366013,-100.9135971
1,TONKAWA_5,345.0,1,ONCOR_ED    ,O_SCURRY   ,32.53044891,-100.6837006
1,REXALL_8,138.0,1,ONCOR_ED    ,O_ECTOR    ,31.82740021,-102.3271027
1,OLFNNSHL_8,138.0,1,ONCOR_ED    ,O_ECTOR    ,31.85626984,-102.3311005
1,NYLONTAP_8,138.0,1,ONCOR_ED    ,O_ECTOR    ,31.82500076,-102.3339996
1,NYLON_8,138.0,1,ONCOR_ED    ,O_ECTOR    ,31.81940079,-102.3451004
1,LONGSHORE_5,345.0,1,ONCOR_ED    ,O_HOWARD   ,32.10079956,-101.452301
1,MIDESSA_8,138.0,1,ONCOR_ED    ,O_MIDLAND  ,31.96699905,-102.1740036
1,SUN_8,138.0,1,ONCOR_ED    ,O_SCURRY   ,32.74853134,-100.9615021
1,GOLDENSW_8,138.0,1,ONCOR_ED    ,O_SCURRY   ,32.77600098,-100.9459991
1,WINKSS_8,138.0,1,ONCOR_ED    ,O_WINKLER  ,31.76210022,-103.1444016
1,WINKSS_9,69.0,1,ONCOR_ED    ,O_WINKLER  ,31.83259964,-103.202301
1,BALDING_8,138.0,1,ONCOR_ED    ,O_WINKLER  ,31.8022995,-103.2399979
1,SALTCRKW_8,138.0,1,ONCOR_ED    ,O_WINKLER  ,31.81739998,-104.0469971
1,WHITOIL_8,138.0,1,ONCOR_ED    ,O_WARD     ,31.57019997,-103.0463028
1,ANDRANCHT_8,138.0,1,ONCOR_ED    ,O_WINKLER  ,31.78199959,-103.5184021
1,MIDCREST_8,138.0,1,ONCOR_ED    ,O_WINKLER  ,31.80013084,-103.8082962
1,ORLA_SW1_8,138.0,1,ONCOR_ED    ,O_WINKLER  ,31.80789948,-103.930603
1,RED_BLUFF1_8,138.0,1,ONCOR_ED    ,O_WINKLER  ,31.80730057,-103.9309006
1,BARSTOWNW_8,138.0,1,ONCOR_ED    ,O_WARD     ,31.51070023,-103.4690018
1,WRDGLFTA_8,138.0,1,ONCOR_ED    ,O_WARD     ,31.59830093,-103.0207977
1,WICKETT_8,138.0,1,ONCOR_ED    ,O_WARD     ,31.58790016,-103.0031967
1,WICKETAP_8,138.0,1,ONCOR_ED    ,O_WARD     ,31.58790016,-103.0031967
1,SCRWBEAN_8,138.0,2,ONCOR_ED    ,O_WINKLER  ,31.8220005,-104.0439987
1,WARDGULF_8,138.0,1,ONCOR_ED    ,O_WARD     ,31.52339935,-102.9673996
1,LOVING_8,138.0,1,ONCOR_ED    ,O_WINKLER  ,31.77599907,-103.4051971
1,ELMAR_8,138.0,1,ONCOR_ED    ,O_WINKLER  ,31.78809929,-103.6195984
1,MASON_8,138.0,1,ONCOR_ED    ,O_WINKLER  ,31.80240059,-103.8181992
1,SCRWBEAN_T8,138.0,1,ONCOR_ED    ,O_WINKLER  ,31.82299995,-104.0479965
1,BLACKRVR_8,138.0,1,ONCOR_ED    ,O_WINKLER  ,31.83379936,-104.2869034
1,CULBERSONT_8,138.0,1,ONCOR_ED    ,O_WINKLER  ,31.75729942,-104.3039017
1,SWPORTAP_8,138.0,1,ONCOR_ED    ,O_ECTOR    ,31.7336998,-102.532402
1,SWPORTLA_8,138.0,1,ONCOR_ED    ,O_ECTOR    ,31.74830055,-102.544899
1,EDWARDS_8,138.0,1,ONCOR_ED    ,O_WARD     ,31.64500046,-102.5070038
1,JUDKINS_8,138.0,2,ONCOR_ED    ,O_ECTOR    ,31.71649933,-102.5970993
1,SANDHLTA_8,138.0,1,ONCOR_ED    ,O_ECTOR    ,31.69079971,-102.7229004
1,SANDHILL_8,138.0,1,ONCOR_ED    ,O_WARD     ,31.53709984,-102.6579971
1,MONAHN1_8,138.0,1,ONCOR_ED    ,O_WARD     ,31.59199905,-102.8980026
1,MONAHN2T_8,138.0,1,ONCOR_ED    ,O_WARD     ,31.5909996,-102.901001
1,MONAHN2_8,138.0,1,ONCOR_ED    ,O_WARD     ,31.59600067,-102.8990021
1,EDWARD_T8,138.0,1,ONCOR_ED    ,O_WARD     ,31.73340034,-102.5334015
1,BIG3ODTA_8,138.0,1,ONCOR_ED    ,O_ECTOR    ,31.8090992,-102.3432999
1,BIG3OD_8,138.0,1,ONCOR_ED    ,O_ECTOR    ,31.81920052,-102.3350983
1,ODESASW1_8,138.0,2,ONCOR_ED    ,O_ECTOR    ,31.79899979,-102.3889999
1,TIDEWATER_8,138.0,1,ONCOR_ED    ,O_ECTOR    ,31.90019989,-102.3121033
1,WINDWOOD_8,138.0,1,ONCOR_ED    ,O_MIDLAND  ,32.01956177,-102.0764999
1,MIDLANDW_8,138.0,1,ONCOR_ED    ,O_MIDLAND  ,31.99300003,-102.1259995
1,CRMWD8TA_8,138.0,1,ONCOR_ED    ,O_MIDLAND  ,31.93120003,-102.2397995
1,CRMWD8_8,138.0,1,ONCOR_ED    ,O_MIDLAND  ,31.94949913,-102.2462997
1,MIDLAIRP_8,138.0,1,ONCOR_ED    ,O_MIDLAND  ,31.93569946,-102.229599
1,GLENHAVN_8,138.0,1,ONCOR_ED    ,O_ECTOR    ,31.89049911,-102.308403
1,ODESSANO_8,138.0,1,ONCOR_ED    ,O_ECTOR    ,31.87220001,-102.3980026
1,ODESSANO_9,69.0,1,ONCOR_ED    ,O_ECTOR    ,31.87229919,-102.3985977
1,MIDESSAS_8,138.0,1,ONCOR_ED    ,O_MIDLAND  ,31.9659996,-102.177002
1,MIDESSAS_5,345.0,1,ONCOR_ED    ,O_MIDLAND  ,31.96899986,-102.1729965
1,ODESSA2_8,138.0,1,ONCOR_ED    ,O_ECTOR    ,31.83639908,-102.3295975
1,LIQDAIR_8,138.0,1,ONCOR_ED    ,O_ECTOR    ,31.83699989,-102.3349991
1,WESTOVER_8,138.0,2,ONCOR_ED    ,O_ECTOR    ,31.83499908,-102.4420013
1,AMOSFOST_8,138.0,1,ONCOR_ED    ,O_ECTOR    ,31.83799934,-102.4420013
1,MIDLDWNT_8,138.0,1,ONCOR_ED    ,O_MIDLAND  ,31.99399948,-102.0780029
1,COTTFLD_8,138.0,1,ONCOR_ED    ,O_MIDLAND  ,31.93969917,-102.0112991
1,LITTMAN_8,138.0,1,ONCOR_ED    ,O_ANDREWS  ,32.25659943,-102.6184006
1,GASLAND_8,138.0,1,ONCOR_ED    ,O_ANDREWS  ,32.24969864,-102.8274002
1,JACKRABT_8,138.0,1,ONCOR_ED    ,O_ECTOR    ,31.87920952,-102.3294983
1,TEXASINS_8,138.0,1,ONCOR_ED    ,O_MIDLAND  ,31.90740013,-102.2046967
1,HEADLEE_8,138.0,1,ONCOR_ED    ,O_ECTOR    ,31.88096046,-102.3070984
1,SHARBAUER_8,138.0,1,ONCOR_ED    ,O_ECTOR    ,31.99230003,-102.6509018
1,HOLTSS_8,138.0,1,ONCOR_ED    ,O_ECTOR    ,32.06362915,-102.5840988
1,AMOCNCTA_8,138.0,1,ONCOR_ED    ,O_ECTOR    ,31.99869919,-102.5549011
1,AMNCOWD_8,138.0,1,ONCOR_ED    ,O_ECTOR    ,31.99530029,-102.5485001
1,AMGLDSMI_8,138.0,1,ONCOR_ED    ,O_ECTOR    ,31.99729919,-102.6194992
1,NOTREES_SE_8,138.0,1,ONCOR_ED    ,O_ECTOR    ,31.90180016,-102.7275009
1,CHEYENTA_8,138.0,1,ONCOR_ED    ,O_WINKLER  ,31.91469955,-103.0009995
1,CHEYENNE_8,138.0,1,ONCOR_ED    ,O_WINKLER  ,31.93490028,-103.0447998
1,DOLRHIDE_8,138.0,1,ONCOR_ED    ,O_WINKLER  ,32.08399963,-102.8730011
1,AMOCO3BA_T8,138.0,1,ONCOR_ED    ,O_ANDREWS  ,32.14599991,-102.8069992
1,AMOCO3BA_8,138.0,1,ONCOR_ED    ,O_ANDREWS  ,32.14799881,-102.8030014
1,UNOCALDH_8,138.0,1,ONCOR_ED    ,O_ANDREWS  ,32.26837921,-102.7414017
1,ARENATAP_8,138.0,1,ONCOR_ED    ,O_ANDREWS  ,32.22299957,-102.6780014
1,BAKKETAP_8,138.0,1,ONCOR_ED    ,O_ANDREWS  ,32.32139969,-102.6075974
1,ANDREWS_8,138.0,1,ONCOR_ED    ,O_ANDREWS  ,32.29399872,-102.6449966
1,ANDRCOSO_8,138.0,1,ONCOR_ED    ,O_ANDREWS  ,32.16350174,-102.7769012
1,ANDRCOSO_5,345.0,1,ONCOR_ED    ,O_ANDREWS  ,32.16350174,-102.7769012
1,NOANDREW_8,138.0,1,ONCOR_ED    ,O_ANDREWS  ,32.35900116,-102.5589981
1,UNPKRBK_8,138.0,1,ONCOR_ED    ,O_ANDREWS  ,32.20800018,-102.4954987
1,ANDRCOSO_3,13.8,1,ONCOR_ED    ,O_ANDREWS  ,32.22394943,-102.5221024
1,LAMESA_8,138.0,1,ONCOR_ED    ,O_HOWARD   ,32.7179985,-101.9380035
1,LAMESA_9,69.0,1,ONCOR_ED    ,O_HOWARD   ,32.72100067,-101.9349976
1,EXNMEANS_8,138.0,1,ONCOR_ED    ,O_ANDREWS  ,32.43399811,-102.5500031
1,MUSTANG_8,138.0,1,ONCOR_ED    ,O_ANDREWS  ,32.45299911,-102.3669968
1,ALKALILK_8,138.0,1,ONCOR_ED    ,O_HOWARD   ,32.38100052,-102.1399994
1,AQUEDUCT_8,138.0,1,ONCOR_ED    ,O_MIDLAND  ,32.07830048,-102.1445999
1,MARNSFLD1_8,138.0,1,ONCOR_ED    ,O_HOWARD   ,32.10400009,-102.1090012
1,TARZANSW_8,138.0,1,ONCOR_ED    ,O_HOWARD   ,32.12802887,-102.1060028
1,GRANDVEW_8,138.0,1,ONCOR_ED    ,O_ECTOR    ,31.90280914,-102.3550034
1,TEXMABEE_8,138.0,1,ONCOR_ED    ,O_HOWARD   ,32.20800018,-102.2310028
1,ADOBEMEW_8,138.0,1,ONCOR_ED    ,O_MIDLAND  ,32.0625,-102.0730972
1,ECTRHILL_8,138.0,1,ONCOR_ED    ,O_ECTOR    ,31.92370033,-102.433197
1,MOCKNBRD_8,138.0,1,ONCOR_ED    ,O_MIDLAND  ,32.0401001,-102.1750031
1,MIDCONW_8,138.0,1,ONCOR_ED    ,O_MIDLAND  ,32.03720093,-102.2471008
1,GODDARD_8,138.0,1,ONCOR_ED    ,O_MIDLAND  ,32.03699875,-102.1269989
1,MIDCONW_5,345.0,1,ONCOR_ED    ,O_MIDLAND  ,32.03720093,-102.2471008
1,MIDCONW_3,13.8,1,ONCOR_ED    ,O_MIDLAND  ,32.03710175,-102.2466965
1,PARKSBL_8,138.0,1,ONCOR_ED    ,O_ECTOR    ,31.9416008,-102.327301
1,BARBER_LK1_8,138.0,1,ONCOR_ED    ,O_MITCHELL ,32.40650177,-100.9079971
1,BARBER_LK2_8,138.0,1,ONCOR_ED    ,O_MITCHELL ,32.40299988,-100.9179993
1,MARNSFLD2_8,138.0,1,ONCOR_ED    ,O_HOWARD   ,32.10400009,-102.1090012
1,MARNSFLD2_T8,138.0,1,ONCOR_ED    ,O_HOWARD   ,32.10400009,-102.1090012
1,CRANE_8,138.0,1,ONCOR_ED    ,O_WARD     ,31.41200066,-102.336998
1,CRANENORTH_9,69.0,1,ONCOR_ED    ,O_WARD     ,31.62667084,-102.2572021
1,CRANE_9,69.0,1,ONCOR_ED    ,O_WARD     ,31.4090004,-102.336998
1,MARNSFLD1_T8,138.0,1,ONCOR_ED    ,O_HOWARD   ,32.10400009,-102.1090012
1,ARCOCRN_8,138.0,1,ONCOR_ED    ,O_WARD     ,31.55654907,-102.1138
1,BARNSLEY_9,69.0,1,ONCOR_ED    ,O_WARD     ,31.40570068,-102.5964966
1,EXNJCTAP_9,69.0,1,ONCOR_ED    ,O_WARD     ,31.39089966,-102.5233994
1,EXONJUAN_9,69.0,1,ONCOR_ED    ,O_WARD     ,31.32819939,-102.5599976
1,CRNATLTA_9,69.0,1,ONCOR_ED    ,O_WARD     ,31.38710022,-102.4447021
1,CRANATLC_9,69.0,1,ONCOR_ED    ,O_WARD     ,31.36709976,-102.4497986
1,CENTRALIA_8,138.0,1,ONCOR_ED    ,O_MIDLAND  ,31.35872078,-101.7490997
1,MIDKIFF_8,138.0,1,ONCOR_ED    ,O_MIDLAND  ,31.52120018,-101.8077011
1,UPTON_8,138.0,1,ONCOR_ED    ,O_MIDLAND  ,31.43899918,-101.8850021
1,CRANEAST_8,138.0,1,ONCOR_ED    ,O_MIDLAND  ,31.43099976,-102.1309967
1,GLASSCOCK_8,138.0,1,ONCOR_ED    ,O_MIDLAND  ,31.7140007,-101.4950027
1,TEXHARVY_8,138.0,1,ONCOR_ED    ,O_MIDLAND  ,31.85499954,-101.7910004
1,GARDCITYE_8,138.0,2,ONCOR_ED    ,O_MIDLAND  ,31.86660004,-101.469101
1,ARUBA1_8,138.0,1,ONCOR_ED    ,O_MIDLAND  ,31.85339928,-101.7913971
1,MIDLGULF_9,69.0,1,ONCOR_ED    ,O_MIDLAND  ,31.97612,-101.8524017
1,MIDBASIN_9,69.0,1,ONCOR_ED    ,O_MIDLAND  ,31.97612,-101.8524017
1,QUARTZSAND_8,138.0,1,ONCOR_ED    ,O_MIDLAND  ,31.96640015,-101.6474991
1,STANTON_E_9,69.0,1,ONCOR_ED    ,O_HOWARD   ,32.15599823,-101.7559967
1,MARTINCAP_9,69.0,1,ONCOR_ED    ,O_HOWARD   ,32.07970047,-101.774498
1,CRANEHUM_9,69.0,1,ONCOR_ED    ,O_WARD     ,31.52495003,-102.1825027
1,PGASUSTA_9,69.0,1,ONCOR_ED    ,O_ECTOR    ,31.74399948,-102.2099991
1,PEGASUS_8,138.0,1,ONCOR_ED    ,O_MIDLAND  ,31.73999977,-102.2139969
1,SPEGSTAP_8,138.0,1,ONCOR_ED    ,O_MIDLAND  ,31.74029922,-102.2509003
1,SOPGASUS_8,138.0,1,ONCOR_ED    ,O_MIDLAND  ,31.66399956,-102.2249985
1,WFCAMPTA_9,69.0,1,ONCOR_ED    ,O_WARD     ,31.19739914,-102.941803
1,WOLFCAMP_9,69.0,1,ONCOR_ED    ,O_WARD     ,31.18580055,-103.035202
1,NNATURAL_9,69.0,1,ONCOR_ED    ,O_WARD     ,30.99550056,-102.9246979
1,COYANOSNW_8,138.0,1,ONCOR_ED    ,O_WARD     ,31.28846931,-103.1215973
1,COYANOSNW2_8,138.0,1,ONCOR_ED    ,O_WARD     ,31.28846931,-103.1215973
1,YUKONSS_8,138.0,1,ONCOR_ED    ,O_ECTOR    ,31.80410004,-102.6846008
1,NOTREES_SO_8,138.0,1,ONCOR_ED    ,O_ECTOR    ,31.87685966,-102.7057037
1,VEST_8,138.0,1,ONCOR_ED    ,O_WINKLER  ,31.77099991,-103.0337982
1,MIDWAY_8,138.0,2,ONCOR_ED    ,O_ECTOR    ,31.86952972,-102.7552032
1,ODESBASN_9,69.0,1,ONCOR_ED    ,O_ECTOR    ,32.02136993,-102.3843002
1,GOLDSMITH_9,69.0,1,ONCOR_ED    ,O_ECTOR    ,31.97599983,-102.637001
1,ECTRSHLT_9,69.0,1,ONCOR_ED    ,O_ECTOR    ,32.00695038,-102.5146027
1,GOLDGFTAP_9,69.0,1,ONCOR_ED    ,O_ECTOR    ,32.01667023,-102.4997025
1,EMMA_8,138.0,1,ONCOR_ED    ,O_ANDREWS  ,32.14670181,-102.6294022
1,SANADTAP_8,138.0,1,ONCOR_ED    ,O_ANDREWS  ,32.1739006,-102.4560013
1,GOLDSGULF1_8,138.0,1,ONCOR_ED    ,O_ECTOR    ,31.97299957,-102.6330032
1,MIDFARMS_8,138.0,1,ONCOR_ED    ,O_ANDREWS  ,32.14567947,-102.4223022
1,FRNKLCTY_8,138.0,1,ONCOR_ED    ,O_ANDREWS  ,32.38140106,-102.7818985
1,WHALENLK_8,138.0,1,ONCOR_ED    ,O_ANDREWS  ,32.34357834,-102.8179016
1,FULLERTON_8,138.0,1,ONCOR_ED    ,O_ANDREWS  ,32.40110016,-102.7142029
1,APPLE_9,69.0,2,ONCOR_ED    ,O_ECTOR    ,31.71080017,-102.2222977
1,APPLE_8,138.0,1,ONCOR_ED    ,O_ECTOR    ,,
1,PHILANDS_T8,138.0,1,ONCOR_ED    ,O_ANDREWS  ,32.29899979,-102.625
1,BAKKE_8,138.0,1,ONCOR_ED    ,O_ANDREWS  ,32.29180145,-102.5382996
1,AMOMIDFM_8,138.0,1,ONCOR_ED    ,O_ANDREWS  ,32.1207695,-102.4468002
1,XTOBLOCK9_8,138.0,1,ONCOR_ED    ,O_ANDREWS  ,32.18746948,-102.4941025
1,SHAFTERLK_8,138.0,1,ONCOR_ED    ,O_ANDREWS  ,32.43199921,-102.652298
1,MEANS_8,138.0,1,ONCOR_ED    ,O_ANDREWS  ,32.42050934,-102.5615997
1,ECTRHARP_8,138.0,1,ONCOR_ED    ,O_ECTOR    ,31.79599953,-102.5270004
1,JENNLKS_8,138.0,1,ONCOR_ED    ,O_HOPKINS  ,,
1,OBRIEN_9,69.0,1,ONCOR_ED    ,O_WARD     ,31.63839912,-103.0186005
1,WICKETT_9,69.0,1,ONCOR_ED    ,O_WARD     ,31.58790016,-103.0031967
1,DOOLEY_9,69.0,1,ONCOR_ED    ,O_WARD     ,31.75,-103.0516968
1,WICKETAP_9,69.0,1,ONCOR_ED    ,O_WARD     ,31.66309929,-102.9132996
1,WELLHEAD_P8,138.0,4,ONCOR_ED    ,O_MIDLAND  ,,
1,EXSHARNR_8,138.0,1,ONCOR_ED    ,O_SCURRY   ,32.63019943,-101.1488037
1,WILLOWVAL_8,138.0,1,ONCOR_ED    ,O_HOWARD   ,32.65106964,-101.3960037
1,WILLOWVAL_5,345.0,1,ONCOR_ED    ,O_HOWARD   ,32.65106964,-101.3960037
1,CLBRSNWND_8,138.0,1,ONCOR_ED    ,O_WINKLER  ,31.8526001,-104.5588989
1,DEEPCRK_8,138.0,2,ONCOR_ED    ,O_SCURRY   ,32.71928024,-100.9207001
1,SNYDER_8,138.0,1,ONCOR_ED    ,O_SCURRY   ,32.70600128,-100.9049988
1,SNYDER_9,69.0,1,ONCOR_ED    ,O_SCURRY   ,32.70399857,-100.901001
1,KEYLYNTE_8,138.0,1,ONCOR_ED    ,O_HOWARD   ,32.69260025,-101.789299
1,GAILLYNT_8,138.0,1,ONCOR_ED    ,O_HOWARD   ,32.65840149,-101.4588013
1,BLUFCKTA_8,138.0,1,ONCOR_ED    ,O_SCURRY   ,32.6291008,-101.0541992
1,KNAPP_8,138.0,2,ONCOR_ED    ,O_SCURRY   ,32.70029831,-101.0678024
1,SACROC_8,138.0,1,ONCOR_ED    ,O_SCURRY   ,32.74399948,-100.9850006
1,SCURYCHV_8,138.0,1,ONCOR_ED    ,O_SCURRY   ,32.77590179,-101.0093994
1,ENISCKTA_8,138.0,1,ONCOR_ED    ,O_SCURRY   ,32.79273987,-100.9570999
1,ENNISCK_8,138.0,1,ONCOR_ED    ,O_SCURRY   ,32.8429985,-100.9209976
1,BRAND_8,138.0,1,ONCOR_ED    ,O_SCURRY   ,32.78366089,-100.9442978
1,BULLSEYE_8,138.0,1,ONCOR_ED    ,O_SCURRY   ,32.78181839,-100.9389038
1,CHINAGRV_8,138.0,1,ONCOR_ED    ,O_MITCHELL ,32.52299881,-100.8720016
1,CHINAGRV_9,69.0,1,ONCOR_ED    ,O_MITCHELL ,32.52099991,-100.8730011
1,CARBON_SS_3,12.47,1,ONCOR_ED    ,O_HOWARD   ,32.27431107,-101.422699
1,CARBONSW_9,69.0,1,ONCOR_ED    ,O_HOWARD   ,32.27431107,-101.422699
1,BIGSPRIG_8,138.0,1,ONCOR_ED    ,O_HOWARD   ,32.26800156,-101.4349976
1,BIGSPRIG_9,69.0,1,ONCOR_ED    ,O_HOWARD   ,32.27000046,-101.4380035
1,AIRPARK_8,138.0,1,ONCOR_ED    ,O_HOWARD   ,32.22748947,-101.5290985
1,STANTON_E_8,138.0,1,ONCOR_ED    ,O_HOWARD   ,32.15800095,-101.7580032
1,SPRABERY_8,138.0,1,ONCOR_ED    ,O_MIDLAND  ,31.84140015,-101.9776993
1,SPRABERY_9,69.0,1,ONCOR_ED    ,O_MIDLAND  ,31.84140015,-101.9779968
1,DRUMRIGT_8,138.0,1,ONCOR_ED    ,O_HOWARD   ,32.06499863,-101.4079971
1,COSDEN_8,138.0,1,ONCOR_ED    ,O_HOWARD   ,32.27299881,-101.4240036
1,MCDONALD_8,138.0,1,ONCOR_ED    ,O_MIDLAND  ,32.08399963,-101.2789993
1,GLASSCNTYN_8,138.0,1,ONCOR_ED    ,BIG SPRG   ,32.06095886,-101.3292007
1,FORSANTA_8,138.0,1,ONCOR_ED    ,O_MIDLAND  ,32.08200073,-101.4150009
1,FORSAN_8,138.0,1,ONCOR_ED    ,O_MIDLAND  ,32.07799911,-101.4179993
1,CRMWDTAP_8,138.0,1,ONCOR_ED    ,O_MIDLAND  ,31.84970093,-101.9455032
1,CRMWDSVN_8,138.0,1,ONCOR_ED    ,O_MIDLAND  ,31.86440086,-101.9502029
1,ESKOTA_8,138.0,1,ONCOR_ED    ,O_NOLAN    ,32.49200058,-100.2450027
1,ESKOTA_9,69.0,1,ONCOR_ED    ,O_NOLAN    ,32.49000168,-100.2460022
1,SWTRDTAP_8,138.0,1,ONCOR_ED    ,O_NOLAN    ,32.44852066,-100.4131012
1,SWEETWTD_8,138.0,1,ONCOR_ED    ,O_NOLAN    ,32.4548111,-100.413002
1,COAHOMA_9,69.0,1,ONCOR_ED    ,O_HOWARD   ,32.29459,-101.3031006
1,IATHOWTA_9,69.0,1,ONCOR_ED    ,O_HOWARD   ,32.32722092,-101.1098022
1,IATNHOW_9,69.0,1,ONCOR_ED    ,O_HOWARD   ,32.33678818,-101.1287003
1,WSTBROOK_9,69.0,1,ONCOR_ED    ,O_MITCHELL ,32.35520172,-101.0147018
1,BSPGGULF_9,69.0,1,ONCOR_ED    ,O_HOWARD   ,32.26160049,-101.4029007
1,CHALK_9,69.0,1,ONCOR_ED    ,O_HOWARD   ,32.11199951,-101.2618027
1,SIGNALMTN_9,69.0,1,ONCOR_ED    ,O_HOWARD   ,32.19643021,-101.398201
1,BUZZDRAW_8,138.0,1,ONCOR_ED    ,O_HOWARD   ,32.50099945,-101.6800003
1,GUNSIGHT_8,138.0,1,ONCOR_ED    ,O_HOWARD   ,32.49737167,-101.4440994
1,ACKERLY_9,69.0,1,ONCOR_ED    ,O_HOWARD   ,32.53450012,-101.7449036
1,ACKRLNTC_9,69.0,1,ONCOR_ED    ,O_HOWARD   ,32.5503006,-101.7668991
1,SPARNBRG_9,69.0,1,ONCOR_ED    ,O_HOWARD   ,32.59159851,-101.8401031
1,BIGCRMWD_8,138.0,1,ONCOR_ED    ,O_HOWARD   ,32.26800156,-101.4349976
1,IRA_9,69.0,1,ONCOR_ED    ,O_SCURRY   ,32.58012009,-100.9980011
1,SCURRY_9,69.0,1,ONCOR_ED    ,O_SCURRY   ,32.57580185,-101.0534973
1,LKTHOMAS_9,69.0,1,ONCOR_ED    ,O_SCURRY   ,32.57641983,-101.1389008
1,SANTAFE_9,69.0,1,ONCOR_ED    ,O_SCURRY   ,32.71492004,-100.9477005
1,SANTAFE_T9,69.0,1,ONCOR_ED    ,O_SCURRY   ,32.71492004,-100.9477005
1,COLBASIN_9,69.0,1,ONCOR_ED    ,O_SCURRY   ,32.59101105,-100.785202
1,AMOCO_9,69.0,1,ONCOR_ED    ,O_SCURRY   ,32.61331177,-100.8048019
1,AMOCOTAP_9,69.0,1,ONCOR_ED    ,O_SCURRY   ,32.63682938,-100.8507004
1,FLINTTAP_T9,69.0,1,ONCOR_ED    ,O_NOLAN    ,32.48120117,-100.2649994
1,COLOCITY_9,69.0,1,ONCOR_ED    ,O_MITCHELL ,32.41799927,-100.9430008
1,PLOWBOY_9,69.0,1,ONCOR_ED    ,O_NOLAN    ,32.46900177,-100.6640015
1,SWEETWTR_9,69.0,2,ONCOR_ED    ,O_NOLAN    ,32.46847153,-100.4113998
1,USGYPSTA_9,69.0,1,ONCOR_ED    ,O_NOLAN    ,32.48889923,-100.3604965
1,USGYPONE_9,69.0,1,ONCOR_ED    ,O_NOLAN    ,32.48889923,-100.3604965
1,FLINTKOT_9,69.0,1,ONCOR_ED    ,O_NOLAN    ,32.47710037,-100.2721024
1,FLINTST_9,69.0,1,ONCOR_ED    ,O_NOLAN    ,32.4817009,-100.2733994
1,USGYPTAP_9,69.0,1,ONCOR_ED    ,O_NOLAN    ,32.48889923,-100.3604965
1,WELCHTAP_9,69.0,1,ONCOR_ED    ,O_HOWARD   ,32.71340179,-101.9729004
1,WELCH_9,69.0,1,ONCOR_ED    ,O_HOWARD   ,32.90159988,-102.0997009
1,DAWSON_9,69.0,1,ONCOR_ED    ,O_HOWARD   ,32.66189957,-102.1873016
1,OXYUSA_9,69.0,1,ONCOR_ED    ,O_HOWARD   ,32.89720154,-102.1373978
1,GETTYVLM_8,138.0,1,ONCOR_ED    ,O_HOWARD   ,32.48300171,-101.3590012
1,HIGHPLAIN_P8,138.0,1,ONCOR_ED    ,O_HOWARD   ,32.48699951,-101.3420029
1,WILDHORSE_P8,138.0,1,ONCOR_ED    ,O_HOWARD   ,32.40372849,-101.2350998
1,RADIUMMT_8,138.0,1,ONCOR_ED    ,O_TAYLOR   ,32.82400131,-99.99199677
1,OAKCREEK_9,69.0,1,ONCOR_ED    ,O_NOLAN    ,32.32048035,-100.1868973
1,LONESTAR_9,69.0,1,ONCOR_ED    ,O_NOLAN    ,32.30995178,-100.4629974
1,NOLANWTY_9,69.0,1,ONCOR_ED    ,O_NOLAN    ,32.3310585,-100.2888031
1,NOLANWTA_9,69.0,1,ONCOR_ED    ,O_NOLAN    ,32.32209015,-100.2884979
1,PLAINVTA_9,69.0,4,ONCOR_ED    ,O_SCURRY   ,32.72056961,-100.8242035
1,SWEETCRK_9,69.0,1,ONCOR_ED    ,O_NOLAN    ,32.29230118,-100.4655991
1,CHAMPNCRK_5,345.0,1,ONCOR_ED    ,O_MITCHELL ,32.39868927,-100.6481018
1,WILLOWCK_5,345.0,1,ONCOR_ED    ,O_WISE     ,33.05569077,-97.91047668
1,BOWMAN_5,345.0,1,ONCOR_ED    ,O_ARCHER   ,33.8103981,-98.60070038
1,BOWMAN_A8,138.0,1,ONCOR_ED    ,O_ARCHER   ,33.81100082,-98.59999847
1,BOWMAN_B8,138.0,1,ONCOR_ED    ,O_ARCHER   ,33.81000137,-98.60109711
1,FISHRDSS1_5,345.0,1,ONCOR_ED    ,O_WICHITA  ,33.88650131,-98.4292984
1,FISHRDSS1_8,138.0,1,ONCOR_ED    ,O_WICHITA  ,33.88650131,-98.4292984
1,FISHERRD_8,138.0,1,ONCOR_ED    ,O_WICHITA  ,33.88650131,-98.4292984
1,JACKSBRO_5,345.0,1,ONCOR_ED    ,O_JACK     ,33.27690125,-98.10649872
1,GRHAMSES1_5,345.0,1,ONCOR_ED    ,O_JACK     ,33.13830185,-98.60970306
1,GRHAMSES1_8,138.0,1,ONCOR_ED    ,O_JACK     ,33.13850021,-98.60959625
1,LONGCREK_5,345.0,1,ONCOR_ED    ,O_SHACKELFO,32.6291008,-99.54070282
1,PARKER_5,345.0,1,ONCOR_ED    ,O_PARKER   ,32.80590057,-97.67627716
1,COMCHESS1_5,345.0,1,ONCOR_ED    ,O_COMANCHE ,31.86787987,-98.55314636
1,COMCHESS1_8,138.0,1,ONCOR_ED    ,O_COMANCHE ,31.86787987,-98.55314636
1,COKFIELD_5,345.0,1,ONCOR_ED    ,O_SHACKELFO,32.75040054,-99.32839966
1,HENDRCH_5,345.0,1,ONCOR_ED    ,O_WISE     ,33.10237885,-97.95300293
1,BROWN_5,345.0,1,ONCOR_ED    ,O_BROWN    ,31.5359993,-99.19200134
1,BURWICK_5,345.0,1,ONCOR_ED    ,O_JACK     ,33.20298004,-98.37304688
1,LKWICHIT1_8,138.0,1,ONCOR_ED    ,O_ARCHER   ,33.8288002,-98.51959991
1,WCHTFLLS1_8,138.0,1,ONCOR_ED    ,O_WICHITA  ,33.89730072,-98.48560333
1,PLEASVAL1_8,138.0,1,ONCOR_ED    ,O_WICHITA  ,33.93880081,-98.58249664
1,PLEASVAL1_9,69.0,1,ONCOR_ED    ,O_WICHITA  ,33.93880081,-98.58249664
1,COBB_T5,345.0,1,ONCOR_ED    ,O_CLAY     ,33.5359993,-98.34169769
1,MLBRRYCK_5,345.0,1,ONCOR_ED    ,O_NOLAN    ,32.53540039,-99.85079956
1,WFALLS_S_8,138.0,1,ONCOR_ED    ,O_ARCHER   ,33.79059982,-98.48470306
1,BYRDSW_5,345.0,1,ONCOR_ED    ,O_WICHITA  ,33.92950058,-98.83159637
1,NORTHSTR_8,138.0,1,ONCOR_ED    ,O_CLAY     ,33.76739883,-98.40650177
1,LKAROWHD_8,138.0,1,ONCOR_ED    ,O_CLAY     ,33.7655983,-98.37149811
1,SUNSETSW_8,138.0,1,ONCOR_ED    ,O_WISE     ,33.43199921,-97.84220123
1,NEWPRT_P8,138.0,1,ONCOR_ED    ,O_CLAY     ,33.51150131,-97.95300293
1,NAVYKSS1_8,138.0,1,ONCOR_ED    ,O_ARCHER   ,33.52209854,-98.67919922
1,NAVYKSS1_9,69.0,1,ONCOR_ED    ,O_ARCHER   ,33.52230072,-98.6772995
1,SCOTLD_P8,138.0,1,ONCOR_ED    ,O_ARCHER   ,33.65179825,-98.52770233
1,WINDTHOR_8,138.0,1,ONCOR_ED    ,O_ARCHER   ,33.53900146,-98.52089691
1,MARKLY_8,138.0,1,ONCOR_ED    ,O_JACK     ,33.37250137,-98.5223999
1,RICESW_8,138.0,1,ONCOR_ED    ,O_JACK     ,33.22679901,-98.53659821
1,ARROWHD_P8,138.0,1,ONCOR_ED    ,O_ARCHER   ,33.79550171,-98.48320007
1,RATHGBER_8,138.0,1,ONCOR_ED    ,O_WICHITA  ,33.84360123,-98.47689819
1,CITYVIEW_8,138.0,1,ONCOR_ED    ,O_WICHITA  ,33.957901,-98.55110168
1,PPG_8,138.0,1,ONCOR_ED    ,O_WICHITA  ,34.00025177,-98.55597687
1,CERAMIC_8,138.0,1,ONCOR_ED    ,O_WICHITA  ,34.0177002,-98.56140137
1,BOOMTOWN_8,138.0,1,ONCOR_ED    ,O_WICHITA  ,34.06489944,-98.5664978
1,SIKES_8,138.0,1,ONCOR_ED    ,O_WICHITA  ,33.86500168,-98.53070068
1,BURNETTSW_8,138.0,1,ONCOR_ED    ,O_WICHITA  ,33.89699936,-98.48459625
1,BURNETTSW_9,69.0,1,ONCOR_ED    ,O_WICHITA  ,33.89699936,-98.48459625
1,RIVERBND_8,138.0,1,ONCOR_ED    ,O_WICHITA  ,33.90459824,-98.54219818
1,ARTHURST_8,138.0,1,ONCOR_ED    ,O_WICHITA  ,33.87360001,-98.53450012
1,WFSTHOSP_8,138.0,1,ONCOR_ED    ,O_WICHITA  ,33.8443985,-98.53250122
1,WFCOGEN_8,138.0,1,ONCOR_ED    ,O_WICHITA  ,33.86206055,-98.58946228
1,PARKWAY2_8,138.0,1,ONCOR_ED    ,O_WICHITA  ,33.84170151,-98.59670258
1,PARKWAY1_8,138.0,1,ONCOR_ED    ,O_WICHITA  ,33.84170151,-98.59670258
1,RUNAWAY_8,138.0,1,ONCOR_ED    ,O_WISE     ,33.16788864,-97.87837219
1,WFALLS_N_9,69.0,1,ONCOR_ED    ,O_WICHITA  ,33.90539932,-98.4756012
1,WFLSNBYP_T9,69.0,1,ONCOR_ED    ,O_WICHITA  ,33.92819977,-98.49700165
1,DRYFRK_8,138.0,1,ONCOR_ED    ,O_CLAY     ,33.8132019,-98.20929718
1,LONG_HLLW_5,345.0,1,ONCOR_ED    ,O_JACK     ,32.9720993,-98.14299774
1,SHPFIELD_T9,69.0,1,ONCOR_ED    ,O_WICHITA  ,33.96500015,-98.4611969
1,WFLLSBSN_T9,69.0,1,ONCOR_ED    ,O_WICHITA  ,33.91410065,-98.4382019
1,PETROLIA_P9,69.0,1,ONCOR_ED    ,O_WICHITA  ,33.90909958,-98.4382019
1,DENTN_CR_8,138.0,1,ONCOR_ED    ,O_WISE     ,33.21049881,-97.44450378
1,WFBASIN_9,69.0,1,ONCOR_ED    ,O_WICHITA  ,34.06389999,-98.15429688
1,DIAMNDSH_9,69.0,1,ONCOR_ED    ,O_WICHITA  ,34.0802002,-98.18309784
1,SHPFIELD1_9,69.0,1,ONCOR_ED    ,O_WICHITA  ,33.96504974,-98.41477203
1,SHPFIELD2_9,69.0,1,ONCOR_ED    ,O_WICHITA  ,34.03089905,-98.49279785
1,IOWAPARK_T9,69.0,1,ONCOR_ED    ,O_WICHITA  ,34.00260162,-98.65149689
1,BURKBURN_9,69.0,1,ONCOR_ED    ,O_WICHITA  ,34.09740067,-98.61340332
1,IOWAPARK_9,69.0,1,ONCOR_ED    ,O_WICHITA  ,33.95610046,-98.66429901
1,CRYOVACE_9,69.0,1,ONCOR_ED    ,O_WICHITA  ,33.95360184,-98.68379974
1,CRYOVAC_T9,69.0,1,ONCOR_ED    ,O_WICHITA  ,33.95610046,-98.66439819
1,CRYOVAC_9,69.0,1,ONCOR_ED    ,O_WICHITA  ,33.95399857,-98.68609619
1,BEAVER_T9,69.0,1,ONCOR_ED    ,O_CLAY     ,33.8451004,-97.96499634
1,BLACKWEL_T9,69.0,1,ONCOR_ED    ,O_ARCHER   ,33.76929855,-98.66470337
1,HOLLIDAY_9,69.0,1,ONCOR_ED    ,O_ARCHER   ,33.80699921,-98.6894989
1,BAYLR_9,69.0,1,ONCOR_ED    ,O_ARCHER   ,33.68909836,-99.04750061
1,SEYMRBAS_9,69.0,1,ONCOR_ED    ,O_ARCHER   ,33.59700012,-99.03910065
1,SEYMOUR_9,69.0,1,ONCOR_ED    ,O_ARCHER   ,33.58879852,-99.26390076
1,BOMARTON_9,69.0,1,ONCOR_ED    ,O_ARCHER   ,33.50159836,-99.38510132
1,SEYMOUR_T9,69.0,1,ONCOR_ED    ,O_ARCHER   ,33.59759903,-99.26390076
1,BAYLOR_T9,69.0,1,ONCOR_ED    ,O_ARCHER   ,33.49089813,-99.4355011
1,KMA_T9,69.0,1,ONCOR_ED    ,O_WICHITA  ,33.85852814,-98.71394348
1,KMA_9,69.0,1,ONCOR_ED    ,O_WICHITA  ,33.82950974,-98.75675201
1,ELECTRA_9,69.0,1,ONCOR_ED    ,O_WICHITA  ,33.89802933,-98.79090118
1,ELECTRA2_9,69.0,1,ONCOR_ED    ,O_WICHITA  ,33.89802933,-98.79090118
1,ROBNTECH_9,69.0,1,ONCOR_ED    ,O_WICHITA  ,33.9394989,-98.498703
1,RINGMAG_T9,69.0,4,ONCOR_ED    ,O_CLAY     ,33.74700165,-98.11430359
1,RINGMAG_9,69.0,1,ONCOR_ED    ,O_CLAY     ,33.86380005,-97.95320129
1,DE_EMGCY_8,138.0,1,ONCOR_ED    ,O_WISE     ,33.31322098,-97.658638
1,CHCOWEST_9,69.0,1,ONCOR_ED    ,O_WISE     ,33.2988205,-97.77755737
1,CHCOCSER_9,69.0,1,ONCOR_ED    ,O_JACK     ,33.27519989,-97.81800079
1,JACKAMCO_9,69.0,1,ONCOR_ED    ,O_JACK     ,33.2696991,-97.95960236
1,JACKSBOR_9,69.0,1,ONCOR_ED    ,O_JACK     ,33.22090149,-98.14170074
1,JACKSINC_T9,69.0,1,ONCOR_ED    ,O_JACK     ,33.22269821,-98.17079926
1,ALVORD_T8,138.0,1,ONCOR_ED    ,O_WISE     ,33.35876083,-97.69473267
1,ALVORD1_8,138.0,1,ONCOR_ED    ,O_WISE     ,33.35736847,-97.69403076
1,CHCOWEST_T8,138.0,1,ONCOR_ED    ,O_WISE     ,33.30728149,-97.77612305
1,CHCOWEST_8,138.0,1,ONCOR_ED    ,O_WISE     ,33.2988205,-97.77755737
1,CHCOGHLL1_8,138.0,1,ONCOR_ED    ,O_WISE     ,33.26490021,-97.79450226
1,BRDGPORT_8,138.0,1,ONCOR_ED    ,O_WISE     ,33.22880173,-97.7696991
1,DECATUR_8,138.0,1,ONCOR_ED    ,O_WISE     ,33.21870041,-97.55574036
1,ALLISON_T8,138.0,1,ONCOR_ED    ,O_DENTON   ,33.21260071,-97.41840363
1,GRINDSTONE_8,138.0,1,ONCOR_ED    ,O_ERATH    ,32.89099884,-98.03859711
1,RHOME_8,138.0,1,ONCOR_ED    ,O_WISE     ,33.06169891,-97.4937973
1,ORAN1_8,138.0,1,ONCOR_ED    ,O_ERATH    ,32.93429947,-98.14689636
1,ORAN1_9,69.0,1,ONCOR_ED    ,O_ERATH    ,32.93510056,-98.14649963
1,MINWLLSW1_8,138.0,1,ONCOR_ED    ,O_ERATH    ,32.80680084,-98.15529633
1,PALOPNTO_T8,138.0,1,ONCOR_ED    ,O_ERATH    ,32.79059982,-98.15540314
1,MINWLLS2_8,138.0,1,ONCOR_ED    ,O_ERATH    ,32.80419922,-98.09999847
1,JUNIPER_8,138.0,1,ONCOR_ED    ,O_ERATH    ,33.07440186,-98.30979919
1,ALEDO1_8,138.0,1,ONCOR_ED    ,O_PARKER   ,32.69577026,-97.60466766
1,MINWLLS1_8,138.0,1,ONCOR_ED    ,O_ERATH    ,32.80419922,-98.09999847
1,GRAFORD_9,69.0,1,ONCOR_ED    ,O_ERATH    ,32.93999863,-98.25769806
1,BENNETT_8,138.0,1,ONCOR_ED    ,O_WISE     ,33.21440125,-97.58869934
1,LIVEOAK1_8,138.0,1,ONCOR_ED    ,O_PARKER   ,32.73460007,-97.80110168
1,MINWLLSE1_8,138.0,2,ONCOR_ED    ,O_ERATH    ,32.79919815,-98.06590271
1,WTHFORDW1_9,69.0,1,ONCOR_ED    ,O_PARKER   ,32.80339813,-97.9088974
1,WTHFORD_9,69.0,1,ONCOR_ED    ,O_PARKER   ,32.77558899,-97.87093353
1,WTHFORDE_9,69.0,1,ONCOR_ED    ,O_PARKER   ,32.75362015,-97.87368774
1,WTHFORDW1_8,138.0,1,ONCOR_ED    ,O_PARKER   ,32.80360031,-97.9088974
1,BRDGPORT_T8,138.0,1,ONCOR_ED    ,O_WISE     ,33.2179985,-97.72969818
1,SPRGTOWN_8,138.0,1,ONCOR_ED    ,O_PARKER   ,32.77841187,-97.77662659
1,WTHFRDSS_8,138.0,1,ONCOR_ED    ,O_PARKER   ,32.88869858,-97.70529938
1,BONHAM_P8,138.0,1,ONCOR_ED    ,O_FANNIN   ,33.63759995,-96.15989685
1,DECATUR_T8,138.0,1,ONCOR_ED    ,O_WISE     ,33.23476028,-97.58598328
1,LIPAN_8,138.0,1,ONCOR_ED    ,O_ERATH    ,32.59700012,-98.09069824
1,GRAHAMSW_8,138.0,1,ONCOR_ED    ,O_JACK     ,33.13499832,-98.60700226
1,GRAHAMSW_9,69.0,1,ONCOR_ED    ,O_JACK     ,33.13899994,-98.60600281
1,BALSORA_8,138.0,1,ONCOR_ED    ,O_WISE     ,33.09939957,-97.86519623
1,BARTON_8,138.0,1,ONCOR_ED    ,O_JACK     ,33.04438019,-98.33978271
1,GRAHAME_8,138.0,1,ONCOR_ED    ,O_JACK     ,33.13299942,-98.56020355
1,GRAHAM_9,69.0,1,ONCOR_ED    ,O_JACK     ,33.12030029,-98.58969879
1,OLNEY_P9,69.0,1,ONCOR_ED    ,O_JACK     ,33.37080002,-98.71970367
1,ANARENE1_9,69.0,1,ONCOR_ED    ,O_ARCHER   ,33.50859833,-98.68470001
1,CWDRDSW1_9,69.0,1,ONCOR_ED    ,O_ARCHER   ,33.42470169,-98.71459961
1,LGNVISTA1_8,138.0,1,ONCOR_ED    ,O_PARKER   ,32.73786926,-97.70922852
1,IVAN_9,69.0,1,ONCOR_ED    ,O_EASTLAND ,32.89569855,-98.71320343
1,LGNVISTA2_8,138.0,1,ONCOR_ED    ,O_PARKER   ,32.73521042,-97.69677734
1,BELLMNT_8,138.0,1,ONCOR_ED    ,O_PARKER   ,32.75009918,-97.71430206
1,POOLVILLE_8,138.0,1,ONCOR_ED    ,O_PARKER   ,32.97483826,-97.86087036
1,BRECK_N_1_8,138.0,1,ONCOR_ED    ,O_EASTLAND ,32.88190079,-98.77909851
1,BRECK_T8,138.0,1,ONCOR_ED    ,O_EASTLAND ,32.74250031,-98.70050049
1,BRECK_8,138.0,1,ONCOR_ED    ,O_EASTLAND ,32.74750137,-98.9036026
1,BRECK_9,69.0,1,ONCOR_ED    ,O_EASTLAND ,32.74739838,-98.90319824
1,SUN_ECU_T8,138.0,1,ONCOR_ED    ,O_EASTLAND ,32.91439819,-98.77739716
1,SUN_ECU_8,138.0,1,ONCOR_ED    ,O_EASTLAND ,32.91220093,-98.79149628
1,CADDO_8,138.0,1,ONCOR_ED    ,O_EASTLAND ,32.73109818,-98.70189667
1,COLNYCRK_8,138.0,1,ONCOR_ED    ,O_EASTLAND ,32.46989822,-98.75479889
1,TUDOR_8,138.0,1,ONCOR_ED    ,O_EASTLAND ,,
1,EASTLAND_9,69.0,1,ONCOR_ED    ,O_EASTLAND ,32.40639877,-98.79260254
1,MORTNVAL_9,69.0,1,ONCOR_ED    ,O_EASTLAND ,32.4701004,-98.80770111
1,LEONSW_8,138.0,1,ONCOR_ED    ,O_EASTLAND ,32.37369919,-98.76909637
1,LEON2_9,69.0,1,ONCOR_ED    ,O_EASTLAND ,32.37379837,-98.76920319
1,LEON5_9,69.0,1,ONCOR_ED    ,O_EASTLAND ,32.375,-98.76679993
1,RANGULF_9,69.0,1,ONCOR_ED    ,O_EASTLAND ,32.49879837,-98.63600159
1,RANGER_9,69.0,1,ONCOR_ED    ,O_EASTLAND ,32.47259903,-98.63939667
1,LAKE_LEON_9,69.0,1,ONCOR_ED    ,O_EASTLAND ,32.39509964,-98.7405014
1,GORMAN_9,69.0,1,ONCOR_ED    ,O_EASTLAND ,32.22330093,-98.65969849
1,DELNMAG_T9,69.0,1,ONCOR_ED    ,O_COMANCHE ,32.13380051,-98.57520294
1,DELNMAG_9,69.0,1,ONCOR_ED    ,O_COMANCHE ,32.11930084,-98.58260345
1,DELEON_9,69.0,1,ONCOR_ED    ,O_COMANCHE ,32.11529922,-98.52629852
1,CMYNHM_T9,69.0,1,ONCOR_ED    ,O_COMANCHE ,32.09690094,-98.46060181
1,CMYNHM_9,69.0,1,ONCOR_ED    ,O_COMANCHE ,32.07339859,-98.47019958
1,DUBLIN1_8,138.0,1,ONCOR_ED    ,O_ERATH    ,32.0768013,-98.34799957
1,DUBLIN1_9,69.0,1,ONCOR_ED    ,O_ERATH    ,32.0768013,-98.34790039
1,SLSTR1PP_8,138.0,1,ONCOR_ED    ,O_ERATH    ,32.33100128,-98.46569824
1,SELDEN_8,138.0,1,ONCOR_ED    ,E_ERATH    ,32.18399811,-98.15799713
1,LINGLVLL_P8,138.0,1,ONCOR_ED    ,O_ERATH    ,32.23749924,-98.38200378
1,STPHNVIL_8,138.0,1,ONCOR_ED    ,O_ERATH    ,32.20529938,-98.23269653
1,FLATCRK_T8,138.0,1,ONCOR_ED    ,O_ERATH    ,32.26539993,-98.47460175
1,ANTLERHLW_8,138.0,1,ONCOR_ED    ,O_ERATH    ,32.22776031,-98.1598587
1,IRELAND_8,138.0,1,ONCOR_ED    ,O_ERATH    ,,
1,JOHNSNVL_P8,138.0,1,ONCOR_ED    ,O_ERATH    ,32.12189865,-97.94539642
1,WALNUTSP_8,138.0,1,ONCOR_ED    ,O_BOSQUE   ,32.06900024,-97.75
1,POWELLDM_8,138.0,1,ONCOR_ED    ,O_BOSQUE   ,32.02737045,-97.4997406
1,HASSE_P8,138.0,1,ONCOR_ED    ,O_COMANCHE ,31.92440033,-98.50409698
1,COMANCHE_T8,138.0,1,ONCOR_ED    ,O_COMANCHE ,31.88960075,-98.59770203
1,COMANCHE_8,138.0,1,ONCOR_ED    ,O_COMANCHE ,31.8946991,-98.60520172
1,FULLHOUSE_8,138.0,1,ONCOR_ED    ,O_ERATH    ,32.14110184,-98.29029846
1,MERCERSGAP_8,138.0,1,ONCOR_ED    ,O_BROWN    ,31.81800079,-98.66500092
1,BRNWDSW_8,138.0,1,ONCOR_ED    ,O_BROWN    ,31.66150093,-98.92019653
1,BRNWD_S_8,138.0,1,ONCOR_ED    ,O_BROWN    ,31.67609978,-98.98200226
1,CAMPBOW_P8,138.0,1,ONCOR_ED    ,O_BROWN    ,31.63629913,-98.96050262
1,GUNSCRK1_8,138.0,1,ONCOR_ED    ,O_EASTLAND ,32.77429962,-98.90090179
1,BRNWD1_8,138.0,1,ONCOR_ED    ,O_BROWN    ,31.72120094,-98.97309875
1,BRNWD1_9,69.0,1,ONCOR_ED    ,O_BROWN    ,31.7215004,-98.97419739
1,ELLISONSPG_9,69.0,1,ONCOR_ED    ,O_COMANCHE ,32.1855011,-98.62270355
1,GUNSCRK2_8,138.0,1,ONCOR_ED    ,O_EASTLAND ,32.77429962,-98.90119934
1,PINKNEY_8,138.0,1,ONCOR_ED    ,O_BROWN    ,31.79640007,-98.71970367
1,LKBRNWD_9,69.0,1,ONCOR_ED    ,O_BROWN    ,31.80797005,-99.09336853
1,BANGS_8,138.0,1,ONCOR_ED    ,O_BROWN    ,31.73060036,-99.1384964
1,SABANA_8,138.0,1,ONCOR_ED    ,O_COMANCHE ,32.0,-98.37400055
1,FARMVLSW_5,345.0,1,ONCOR_ED    ,O_COLLIN   ,33.19015121,-96.33786774
1,PARIS_SW1_3,13.8,1,ONCOR_ED    ,O_LAMAR    ,33.63999939,-95.57800293
1,BLOOSOM_T8,138.0,1,ONCOR_ED    ,O_LAMAR    ,33.64770126,-95.43240356
1,VALLYSES1_5,345.0,1,ONCOR_ED    ,O_FANNIN   ,33.62715912,-96.37014008
1,VALLYSES1_8,138.0,1,ONCOR_ED    ,O_FANNIN   ,33.62715912,-96.37014008
1,PARIS_SW1_5,345.0,1,ONCOR_ED    ,O_LAMAR    ,33.63919067,-95.58114624
1,PARIS_SW1_8,138.0,1,ONCOR_ED    ,O_LAMAR    ,33.63919067,-95.58114624
1,TENASKA_8,138.0,1,ONCOR_ED    ,O_LAMAR    ,33.69789886,-95.55729675
1,MOSES_5,345.0,1,ONCOR_ED    ,O_TITUS    ,33.0921402,-95.04163361
1,MOSES1_T5,345.0,1,ONCOR_ED    ,O_TITUS    ,33.09215164,-95.04161835
1,SULSP_SS1_5,345.0,1,ONCOR_ED    ,O_HOPKINS  ,33.08580017,-95.61640167
1,SULSP_SS1_8,138.0,1,ONCOR_ED    ,O_HOPKINS  ,33.08589935,-95.61650085
1,BELLSN_T8,138.0,1,ONCOR_ED    ,O_GRAYSON  ,33.6014595,-96.45890808
1,TOCO_8,138.0,1,ONCOR_ED    ,O_LAMAR    ,33.64390182,-95.62670135
1,TOCO_9,69.0,1,ONCOR_ED    ,O_LAMAR    ,33.65483093,-95.64607239
1,SHER_L_M_8,138.0,1,ONCOR_ED    ,O_GRAYSON  ,33.61520004,-96.69940186
1,GAINVL_E_T8,138.0,1,ONCOR_ED    ,O_COOKE    ,33.65539932,-97.09249878
1,GAINVL_E_8,138.0,1,ONCOR_ED    ,O_COOKE    ,33.5807991,-97.05750275
1,GAINVLDX1_8,138.0,1,ONCOR_ED    ,O_COOKE    ,33.63600159,-97.14379883
1,GAINVLDX1_9,69.0,1,ONCOR_ED    ,O_COOKE    ,33.63600159,-97.14379883
1,GAINVL_N1_8,138.0,1,ONCOR_ED    ,O_COOKE    ,33.65409851,-97.14769745
1,MUENSTER_9,69.0,1,ONCOR_ED    ,O_COOKE    ,33.64030075,-97.33010101
1,SHRM_TI_2_8,138.0,1,ONCOR_ED    ,O_GRAYSON  ,33.57836151,-96.61483002
1,MEMC_SW_3_8,138.0,1,ONCOR_ED    ,O_GRAYSON  ,33.61598969,-96.62521362
1,ST_JO_P9,69.0,1,ONCOR_ED    ,O_CLAY     ,33.67969894,-97.48269653
1,MEMC_SW_1_8,138.0,1,ONCOR_ED    ,O_GRAYSON  ,33.61598969,-96.62521362
1,GAINVL_E_T9,69.0,2,ONCOR_ED    ,O_COOKE    ,33.62810135,-97.11460114
1,GAINVL_T9,69.0,1,ONCOR_ED    ,O_COOKE    ,33.6753006,-97.17639923
1,GAINVLCH_9,69.0,1,ONCOR_ED    ,O_COOKE    ,33.70119858,-97.20130157
1,LIBERTY_8,138.0,1,ONCOR_ED    ,O_HOPKINS  ,33.01720047,-95.65830231
1,WHTBORSE_8,138.0,1,ONCOR_ED    ,O_GRAYSON  ,33.62760162,-96.8635025
1,GORDVL_8,138.0,1,ONCOR_ED    ,O_GRAYSON  ,33.73509979,-96.84300232
1,VAL_STH_5,345.0,1,ONCOR_ED    ,O_FANNIN   ,33.61375046,-96.3734436
1,W_KRUM_5,345.0,1,ONCOR_ED    ,O_DENTON   ,33.32429886,-97.3109436
1,SHER_NW_8,138.0,1,ONCOR_ED    ,O_GRAYSON  ,33.6731987,-96.61499786
1,PERRIN_T8,138.0,1,ONCOR_ED    ,O_GRAYSON  ,33.71640015,-96.61270142
1,FINK_T8,138.0,1,ONCOR_ED    ,O_GRAYSON  ,33.71780014,-96.64769745
1,FINK_8,138.0,1,ONCOR_ED    ,O_GRAYSON  ,33.7961998,-96.67710114
1,PERRIN1_8,138.0,1,ONCOR_ED    ,O_GRAYSON  ,33.71590042,-96.64759827
1,DENISN_W1_8,138.0,1,ONCOR_ED    ,O_GRAYSON  ,33.7602005,-96.59159851
1,WHTBORSE_P8,138.0,1,ONCOR_ED    ,O_GRAYSON  ,33.62720108,-96.86389923
1,DENISND_T8,138.0,1,ONCOR_ED    ,O_GRAYSON  ,33.75040054,-96.57208252
1,SHRM_TI_T8,138.0,1,ONCOR_ED    ,O_GRAYSON  ,33.55479813,-96.63770294
1,LKTEXOMA_8,138.0,1,ONCOR_ED    ,O_GRAYSON  ,33.84790039,-96.62960052
1,TEXOMA_T8,138.0,1,ONCOR_ED    ,O_GRAYSON  ,33.770401,-96.59100342
1,DENISN_N_8,138.0,1,ONCOR_ED    ,O_GRAYSON  ,33.78879929,-96.55770111
1,GORDVL_T8,138.0,1,ONCOR_ED    ,O_GRAYSON  ,33.62620163,-96.84680176
1,DENISN_8,138.0,1,ONCOR_ED    ,O_GRAYSON  ,33.7417984,-96.54499817
1,SHER_E_8,138.0,1,ONCOR_ED    ,O_GRAYSON  ,33.64199829,-96.57279968
1,CHERYMND_P8,138.0,1,ONCOR_ED    ,O_GRAYSON  ,33.70800018,-96.42870331
1,ELMONT_P8,138.0,1,ONCOR_ED    ,O_GRAYSON  ,33.47639847,-96.64279938
1,SHRM_TI_1_8,138.0,1,ONCOR_ED    ,O_GRAYSON  ,33.57835007,-96.61483002
1,SHER_S_8,138.0,1,ONCOR_ED    ,O_GRAYSON  ,33.55739975,-96.61090088
1,VAN_AL_E_8,138.0,1,ONCOR_ED    ,O_GRAYSON  ,33.3830986,-96.52690125
1,WHTMND_8,138.0,1,ONCOR_ED    ,O_GRAYSON  ,33.49893951,-96.5612793
1,VAN_AL_8,138.0,1,ONCOR_ED    ,O_GRAYSON  ,33.47700119,-96.64279938
1,ECTOR_P8,138.0,1,ONCOR_ED    ,O_FANNIN   ,33.56579971,-96.24890137
1,ALLA_HUB_P8,138.0,1,ONCOR_ED    ,O_COLLIN   ,33.36769867,-96.72329712
1,PAYNE1_8,138.0,1,ONCOR_ED    ,O_GRAYSON  ,33.61520004,-96.62760162
1,BONHMSS1_8,138.0,1,ONCOR_ED    ,O_FANNIN   ,33.57440186,-96.1753006
1,BONHMSS_9,69.0,1,ONCOR_ED    ,O_FANNIN   ,33.57440186,-96.17479706
1,BONHMNW1_8,138.0,1,ONCOR_ED    ,O_FANNIN   ,33.56280136,-96.19920349
1,PINKHIL_P8,138.0,1,ONCOR_ED    ,O_GRAYSON  ,33.64649963,-96.47226715
1,BELLS1_9,69.0,1,ONCOR_ED    ,O_GRAYSON  ,33.6012001,-96.41079712
1,ECTOR1_9,69.0,1,ONCOR_ED    ,O_FANNIN   ,33.56529999,-96.2621994
1,EXPLR_PL1_8,138.0,1,ONCOR_ED    ,O_FANNIN   ,33.57899857,-96.19450378
1,DEPORT_P8,138.0,1,ONCOR_ED    ,O_LAMAR    ,33.51699829,-95.34680176
1,LAMARBM1_8,138.0,1,ONCOR_ED    ,O_LAMAR    ,33.64089966,-95.42410278
1,LAMARBM1_9,69.0,1,ONCOR_ED    ,O_LAMAR    ,33.64089966,-95.42410278
1,PARIS_E_8,138.0,1,ONCOR_ED    ,O_LAMAR    ,33.66609955,-95.50610352
1,PARIS_N_8,138.0,1,ONCOR_ED    ,O_LAMAR    ,33.69390106,-95.55580139
1,PARIS_KC_8,138.0,1,ONCOR_ED    ,O_LAMAR    ,33.63830185,-95.59020233
1,PARIS_8,138.0,1,ONCOR_ED    ,O_LAMAR    ,33.65520096,-95.5684967
1,RIVERCST_8,138.0,1,ONCOR_ED    ,O_LAMAR    ,33.39929962,-95.15619659
1,RIVERCST_9,69.0,1,ONCOR_ED    ,O_LAMAR    ,33.3995018,-95.15650177
1,SHERRY_P9,69.0,1,ONCOR_ED    ,O_LAMAR    ,33.582901,-95.04750061
1,RIVERCST_T9,69.0,1,ONCOR_ED    ,O_LAMAR    ,33.40650177,-95.15730286
1,CLARKVL_9,69.0,1,ONCOR_ED    ,O_LAMAR    ,33.61840057,-95.05280304
1,BAGWELL1_9,69.0,1,ONCOR_ED    ,O_LAMAR    ,33.64479828,-95.15940094
1,RENO_T8,138.0,1,ONCOR_ED    ,O_LAMAR    ,33.62929916,-95.48719788
1,RIVERCST_3,13.8,1,ONCOR_ED    ,O_LAMAR    ,33.39979935,-95.15589905
1,BRKSTON1_9,69.0,1,ONCOR_ED    ,O_LAMAR    ,33.6344986,-95.69809723
1,HONEY_GR_9,69.0,1,ONCOR_ED    ,O_FANNIN   ,33.5984993,-95.90529633
1,WINDMSPA1_P9,69.0,1,ONCOR_ED    ,O_FANNIN   ,33.58779907,-95.99279785
1,MOSESMIN_8,138.0,1,ONCOR_ED    ,O_TITUS    ,33.18920135,-95.08940125
1,TALCO_W_P8,138.0,1,ONCOR_ED    ,O_TITUS    ,33.34870148,-95.20279694
1,MOSES_T8,138.0,1,ONCOR_ED    ,O_TITUS    ,33.30540085,-95.25630188
1,MOSES1_8,138.0,1,ONCOR_ED    ,O_TITUS    ,33.0921402,-95.04163361
1,SULBLF1_8,138.0,1,ONCOR_ED    ,O_HOPKINS  ,33.22790146,-95.35600281
1,SULSP_E_T8,138.0,1,ONCOR_ED    ,O_HOPKINS  ,33.11709976,-95.53240204
1,SULSP_E1_8,138.0,1,ONCOR_ED    ,O_HOPKINS  ,33.15129852,-95.56600189
1,MRTNSPG1_8,138.0,1,ONCOR_ED    ,O_HOPKINS  ,33.09489822,-95.56839752
1,PAR_PUMP_T8,138.0,1,ONCOR_ED    ,O_LAMAR    ,33.51750183,-95.65129852
1,DELTA1_8,138.0,1,ONCOR_ED    ,O_HOPKINS  ,33.38199997,-95.69039917
1,BONHAM_8,138.0,1,ONCOR_ED    ,O_FANNIN   ,33.55329895,-96.1772995
1,WOLFECTY_8,138.0,1,ONCOR_ED    ,O_HUNT     ,33.37379837,-96.06600189
1,WOLFCTY_P8,138.0,1,ONCOR_ED    ,O_HUNT     ,33.38890076,-96.06639862
1,SULSPG_8,138.0,1,ONCOR_ED    ,O_HOPKINS  ,33.13195038,-95.61348724
1,CUMBY1_T8,138.0,1,ONCOR_ED    ,O_HOPKINS  ,33.18450165,-95.80349731
1,COMM_SW_8,138.0,1,ONCOR_ED    ,O_HUNT     ,33.25510025,-95.91200256
1,COMM_S1_8,138.0,1,ONCOR_ED    ,O_HUNT     ,33.2317009,-95.90679932
1,COMMERCE1_8,138.0,1,ONCOR_ED    ,O_HUNT     ,33.25880051,-95.8986969
1,COOPERLK_T8,138.0,1,ONCOR_ED    ,O_HOPKINS  ,33.17129898,-95.75640106
1,COOPERLK_8,138.0,1,ONCOR_ED    ,O_HOPKINS  ,33.28910065,-95.69219971
1,BRKSTN_T8,138.0,1,ONCOR_ED    ,O_LAMAR    ,33.63150024,-95.6984024
1,LOYLAKE_8,138.0,1,ONCOR_ED    ,O_GRAYSON  ,33.75260162,-96.59660339
1,BOISPUMP_T8,138.0,1,ONCOR_ED    ,O_FANNIN   ,33.64030075,-96.03759766
1,MALRYCRK_8,138.0,1,ONCOR_ED    ,O_LAMAR    ,33.5481987,-95.62550354
1,STONCRK_8,138.0,1,ONCOR_ED    ,O_GRAYSON  ,33.61458969,-96.62624359
1,CADE_BRN1_8,138.0,1,ONCOR_ED    ,O_TARRANT  ,,
1,CROSRDSW_8,138.0,1,ONCOR_ED    ,O_HUNT     ,33.4516983,-95.67150116
1,ROANOKE3T5,345.0,1,ONCOR_ED    ,O_DENTON   ,32.99200058,-97.26210022
1,LATIGO_PE,138.0,1,ONCOR_ED    ,O_TARRANT  ,32.96459961,-97.26319885
1,ROANOKE1T5,345.0,1,ONCOR_ED    ,O_DENTON   ,32.99200058,-97.26210022
1,ROANOKE2T_8,138.0,1,ONCOR_ED    ,O_DENTON   ,32.99200058,-97.26210022
1,ROANOKE2T5,345.0,1,ONCOR_ED    ,O_DENTON   ,32.99200058,-97.26210022
1,ROANOKE1T_8,138.0,2,ONCOR_ED    ,O_DENTON   ,32.99200058,-97.26210022
1,ROANOKE1_5,345.0,1,ONCOR_ED    ,O_DENTON   ,32.99200058,-97.26210022
1,ROANOKE2_8,138.0,1,ONCOR_ED    ,O_DENTON   ,32.99200058,-97.26210022
1,ROANOKE2_5,345.0,1,ONCOR_ED    ,O_DENTON   ,32.99200058,-97.26210022
1,ROANOKE1_8,138.0,1,ONCOR_ED    ,O_DENTON   ,32.99200058,-97.26210022
1,ALLIANCE1_5,345.0,1,ONCOR_ED    ,O_TARRANT  ,32.95660019,-97.30599976
1,KELLER1T_8,138.0,1,ONCOR_ED    ,O_TARRANT  ,32.92058945,-97.25657654
1,MCPHERSN_P8,138.0,1,ONCOR_ED    ,O_DENTON   ,32.94200134,-97.26170349
1,BASECAMP1_8,138.0,1,ONCOR_ED    ,O_TARRANT  ,,
1,EAGLEMNT1_5,345.0,1,ONCOR_ED    ,O_TARRANT  ,32.90829849,-97.47720337
1,EAGLEMNT1_8,138.0,1,ONCOR_ED    ,O_TARRANT  ,32.90829849,-97.47720337
1,MORRIS_D2_8,138.0,1,ONCOR_ED    ,O_TARRANT  ,32.86339951,-97.40219879
1,MORRIS_D1_8,138.0,1,ONCOR_ED    ,O_TARRANT  ,32.86339951,-97.40219879
1,ELZCRK1_8,138.0,1,ONCOR_ED    ,O_DENTON   ,33.01300049,-97.29530334
1,ELIZCRK2_8,138.0,1,ONCOR_ED    ,O_DENTON   ,33.01340103,-97.29489899
1,WLFHMDPT_5,345.0,1,ONCOR_ED    ,O_HOOD     ,32.33568954,-97.73190308
1,BENBRK_A_T5,345.0,1,ONCOR_ED    ,O_TARRANT  ,32.68519974,-97.47170258
1,BENBRK_B_T5,345.0,1,ONCOR_ED    ,O_TARRANT  ,32.68519974,-97.47170258
1,ROANKS1_8,138.0,1,ONCOR_ED    ,O_DENTON   ,32.98410034,-97.25499725
1,ROANKS2_8,138.0,1,ONCOR_ED    ,O_DENTON   ,32.99240112,-97.26129913
1,BENBRK_5,345.0,1,ONCOR_ED    ,O_TARRANT  ,32.68519974,-97.47170258
1,BENBRK_A_8,138.0,1,ONCOR_ED    ,O_TARRANT  ,32.68299866,-97.47399902
1,BENBRK_B_8,138.0,1,ONCOR_ED    ,O_TARRANT  ,32.68600082,-97.47000122
1,WLFHOLW_5,345.0,1,ONCOR_ED    ,O_HOOD     ,32.33568954,-97.73190308
1,MITCHBND_5,345.0,1,ONCOR_ED    ,O_HOOD     ,32.33069992,-97.70516968
1,WHCCS2_4,345.0,1,ONCOR_ED    ,E_HOOD     ,32.33237839,-97.73114014
1,WHCCS2_5,345.0,1,ONCOR_ED    ,E_HOOD     ,32.33229065,-97.72846985
1,ROCKYCRK_5,345.0,1,ONCOR_ED    ,O_TARRANT  ,32.59500122,-97.43800354
1,ROCKYCRK_8,138.0,1,ONCOR_ED    ,O_TARRANT  ,32.59500122,-97.44300079
1,EVRMAN_W5,345.0,1,ONCOR_ED    ,O_TARRANT  ,32.63999939,-97.251297
1,EVRMAN_A8,138.0,1,ONCOR_ED    ,O_TARRANT  ,32.63999939,-97.251297
1,EVRMAN_B8,138.0,1,ONCOR_ED    ,O_TARRANT  ,32.63999939,-97.251297
1,EVRMNTIE1_5,345.0,1,ONCOR_ED    ,O_TARRANT  ,32.63999939,-97.251297
1,EVRMAN_E5,345.0,1,ONCOR_ED    ,O_TARRANT  ,32.63999939,-97.251297
1,DECRDOVA_T5,345.0,4,ONCOR_ED    ,O_HOOD     ,32.40299988,-97.69799805
1,DECRDOVA_5,345.0,4,ONCOR_ED    ,O_HOOD     ,32.40299988,-97.69499969
1,DECRDOVA_8,138.0,1,ONCOR_ED    ,O_HOOD     ,32.40299988,-97.69499969
1,MITCHBND2_5,345.0,1,ONCOR_ED    ,O_HOOD     ,32.33069992,-97.70516968
1,MITCHBND3_5,345.0,1,ONCOR_ED    ,O_HOOD     ,32.33069992,-97.70516968
1,MITCHBND4_5,345.0,1,ONCOR_ED    ,O_HOOD     ,32.33069992,-97.70516968
1,MITCHBND5_5,345.0,1,ONCOR_ED    ,O_HOOD     ,32.33069992,-97.70516968
1,MITCHBND6_5,345.0,1,ONCOR_ED    ,O_HOOD     ,32.33069992,-97.70516968
1,COMCHPKW_5,345.0,3,ONCOR_ED    ,O_HOOD     ,32.29804993,-97.78972626
1,JHNSONSW_P5,345.0,1,ONCOR_ED    ,O_JOHNSON  ,32.39500046,-97.48529816
1,WEBB3_5,345.0,1,ONCOR_ED    ,O_TARRANT  ,32.60480118,-97.08100128
1,GRIFFTH_P8,138.0,1,ONCOR_ED    ,O_JOHNSON  ,32.4137001,-97.12580109
1,VENUS_S5,345.0,1,ONCOR_ED    ,O_ELLIS    ,32.44316864,-97.07321167
1,VENUS_N5,345.0,1,ONCOR_ED    ,O_ELLIS    ,32.44316864,-97.07321167
1,VENUS3_8,138.0,1,BEPC_TSP    ,BEPC_ELLIS ,32.44316864,-97.07321167
1,VENUS1_8,138.0,1,ONCOR_ED    ,O_ELLIS    ,32.44316864,-97.07321167
1,VENUS2_8,138.0,1,ONCOR_ED    ,O_ELLIS    ,32.44316864,-97.07321167
1,WEBB1_5,345.0,1,ONCOR_ED    ,O_TARRANT  ,32.60480118,-97.08100128
1,MAYFLDN_T8,138.0,1,ONCOR_ED    ,O_DALLAS   ,32.69100189,-97.03520203
1,MAYFLDN_8,138.0,1,ONCOR_ED    ,O_DALLAS   ,32.69100189,-97.03489685
1,MAYFLDS_8,138.0,1,ONCOR_ED    ,O_DALLAS   ,32.69079971,-97.03450012
1,LIGGETTA2_5,345.0,1,ONCOR_ED    ,O_DALLAS   ,32.81470108,-97.02549744
1,SHRYAUTO1_5,345.0,1,ONCOR_ED    ,O_TARRANT  ,32.71419907,-97.07099915
1,SHRY_A8,138.0,1,ONCOR_ED    ,O_TARRANT  ,32.71419907,-97.07099915
1,SHRY_B8,138.0,1,ONCOR_ED    ,O_TARRANT  ,32.71419907,-97.07099915
1,LIGGETTA1_5,345.0,1,ONCOR_ED    ,O_DALLAS   ,32.81470108,-97.02549744
1,LIGGETT_N8,138.0,2,ONCOR_ED    ,O_DALLAS   ,32.81470108,-97.02549744
1,LIGGETTA1_8,138.0,1,ONCOR_ED    ,O_DALLAS   ,32.81470108,-97.02549744
1,LIGGETT_S8,138.0,1,ONCOR_ED    ,O_DALLAS   ,32.81470108,-97.02549744
1,LIGGETTA2_8,138.0,1,ONCOR_ED    ,O_DALLAS   ,32.81470108,-97.02549744
1,LIGGETT_1T5,345.0,1,ONCOR_ED    ,O_DALLAS   ,32.81470108,-97.02549744
1,LIGGETT_2T5,345.0,1,ONCOR_ED    ,O_DALLAS   ,32.81470108,-97.02549744
1,LIGGETT_3T5,345.0,1,ONCOR_ED    ,O_DALLAS   ,32.81470108,-97.02549744
1,CENTURY1_5,345.0,1,ONCOR_ED    ,O_TARRANT  ,32.67990112,-97.08339691
1,CENTURY3_5,345.0,2,ONCOR_ED    ,O_TARRANT  ,32.67990112,-97.08339691
1,COURTLND1_5,345.0,1,ONCOR_ED    ,O_TARRANT  ,32.65620041,-97.1309967
1,KENNDALE1_5,345.0,1,ONCOR_ED    ,O_TARRANT  ,32.63690186,-97.21379852
1,KENNEDALE_8,138.0,1,ONCOR_ED    ,O_TARRANT  ,32.64680099,-97.22585297
1,SHRYAUTO2_5,345.0,1,ONCOR_ED    ,O_TARRANT  ,32.71419907,-97.07099915
1,SYCMRCRK1_5,345.0,1,ONCOR_ED    ,O_TARRANT  ,32.64379883,-97.28469849
1,MDLTHELP_5,345.0,1,ONCOR_ED    ,O_ELLIS    ,32.42832947,-97.05272675
1,MDLTHELP_S5,345.0,1,ONCOR_ED    ,O_ELLIS    ,32.42834091,-97.052742
1,MDLTHELP_N5,345.0,1,ONCOR_ED    ,O_ELLIS    ,32.42834091,-97.052742
1,HANDLEYC_8,138.0,1,ONCOR_ED    ,O_TARRANT  ,32.72850037,-97.21679688
1,HANDLEYD_8,138.0,1,ONCOR_ED    ,O_TARRANT  ,32.72850037,-97.21679688
1,HANDLEY_9,69.0,4,ONCOR_ED    ,O_TARRANT  ,32.72850037,-97.21679688
1,WHITESTW1_8,138.0,1,ONCOR_ED    ,O_TARRANT  ,32.79899979,-97.52200317
1,CALMONT1_8,138.0,1,ONCOR_ED    ,O_TARRANT  ,32.73300171,-97.44799805
1,CALMONT1_9,69.0,1,ONCOR_ED    ,O_TARRANT  ,32.73400116,-97.4489975
1,NMAIN1_8,138.0,1,ONCOR_ED    ,O_TARRANT  ,32.76214981,-97.33587646
1,ALCON1_8,138.0,1,ONCOR_ED    ,O_TARRANT  ,32.65370178,-97.30590057
1,ALCON2_8,138.0,1,ONCOR_ED    ,O_TARRANT  ,32.65409851,-97.30319977
1,MARRS_8,138.0,1,ONCOR_ED    ,O_TARRANT  ,32.64490128,-97.28739929
1,HIGHL_E_P8,138.0,1,ONCOR_ED    ,O_DENTON   ,33.07099915,-97.03299713
1,LEW_JNS_P8,138.0,1,ONCOR_ED    ,O_DENTON   ,33.06359863,-97.00959778
1,LEW_JNSW_P8,138.0,1,ONCOR_ED    ,O_DENTON   ,33.06359863,-97.00959778
1,HIGHL_W_P8,138.0,1,ONCOR_ED    ,O_DENTON   ,33.08639908,-97.05180359
1,WSMSW_T8,138.0,1,ONCOR_ED    ,O_TARRANT  ,32.80500031,-97.41799927
1,WHTSETLMNT_8,138.0,1,ONCOR_ED    ,O_TARRANT  ,32.74917984,-97.4538269
1,WESTON1_8,138.0,1,ONCOR_ED    ,O_COLLIN   ,33.21820068,-96.61470032
1,WESTON2_8,138.0,1,ONCOR_ED    ,O_COLLIN   ,33.2181015,-96.61470032
1,WLFHOLW2_5,345.0,1,ONCOR_ED    ,O_HOOD     ,32.33568954,-97.73190308
1,WLFHOLW3_5,345.0,1,ONCOR_ED    ,O_HOOD     ,32.33568954,-97.73190308
1,WLFHOLW4_5,345.0,1,ONCOR_ED    ,O_HOOD     ,32.33568954,-97.73190308
1,CORINTHS1_8,138.0,1,ONCOR_ED    ,O_DENTON   ,33.15333176,-97.05428314
1,ARGYLE1_8,138.0,1,ONCOR_ED    ,O_DENTON   ,33.1617012,-97.15859985
1,CORINTH1_8,138.0,1,ONCOR_ED    ,O_DENTON   ,33.15859985,-97.08860016
1,KRUM_T8,138.0,1,ONCOR_ED    ,O_DENTON   ,33.22040176,-97.26010132
1,KRUM_8,138.0,1,ONCOR_ED    ,O_DENTON   ,33.22180176,-97.25659943
1,VALVIEW_8,138.0,1,ONCOR_ED    ,O_COOKE    ,33.48680115,-97.18270111
1,BLAGGST1_8,138.0,1,ONCOR_ED    ,O_DENTON   ,33.22909927,-97.0714035
1,BLAGGST2_8,138.0,1,ONCOR_ED    ,O_DENTON   ,33.22909927,-97.07150269
1,KRUGRVL1_8,138.0,1,ONCOR_ED    ,O_DENTON   ,33.27809906,-96.99330139
1,ATMEL1_T8,138.0,1,ONCOR_ED    ,O_DALLAS   ,32.85681152,-97.00678253
1,ATMEL2_T8,138.0,1,ONCOR_ED    ,O_DALLAS   ,32.88790894,-97.00119781
1,IRVNORTH_8,138.0,1,ONCOR_ED    ,O_DALLAS   ,32.86529922,-97.00119781
1,IRVBELT1_T8,138.0,1,ONCOR_ED    ,O_DALLAS   ,32.84447098,-96.9910965
1,IRVBELT2_8,138.0,1,ONCOR_ED    ,O_DALLAS   ,32.8158989,-96.97460175
1,IRVVALVW_8,138.0,1,ONCOR_ED    ,O_DALLAS   ,32.88779831,-96.99909973
1,DFW_SW_8,138.0,1,ONCOR_ED    ,O_TARRANT  ,32.90454102,-97.03592682
1,TRIGAS1_T8,138.0,1,ONCOR_ED    ,O_DALLAS   ,32.88439941,-97.00029755
1,TRIGAS_8,138.0,1,ONCOR_ED    ,O_DALLAS   ,32.88439941,-97.00029755
1,COPPELL_8,138.0,1,ONCOR_ED    ,O_DALLAS   ,32.94910049,-97.00749969
1,EULESS_8,138.0,1,ONCOR_ED    ,O_TARRANT  ,32.86510086,-97.09940338
1,COPELL_S_8,138.0,1,ONCOR_ED    ,O_TARRANT  ,32.90779877,-96.9434967
1,WROANOKE1_8,138.0,1,ONCOR_ED    ,O_DENTON   ,32.9919281,-97.26157379
1,KIMBALL1_8,138.0,1,ONCOR_ED    ,O_TARRANT  ,32.97040176,-97.14260101
1,STHLAKE1_8,138.0,1,ONCOR_ED    ,O_TARRANT  ,33.01169968,-97.23600006
1,GV_BALL1_8,138.0,1,ONCOR_ED    ,O_TARRANT  ,32.92679977,-97.08460236
1,DFW_NW_8,138.0,1,ONCOR_ED    ,O_TARRANT  ,32.92689896,-97.04360199
1,KIMBALL2_8,138.0,1,ONCOR_ED    ,O_TARRANT  ,32.97040176,-97.14260101
1,MCKAMYRD_8,138.0,1,ONCOR_ED    ,O_DENTON   ,33.01399994,-97.07559967
1,CLYVIL1_T8,138.0,1,ONCOR_ED    ,O_TARRANT  ,32.8783989,-97.18489838
1,BEARCK1_8,138.0,1,ONCOR_ED    ,O_TARRANT  ,32.89410019,-97.20189667
1,CLYVIL2_T8,138.0,1,ONCOR_ED    ,O_TARRANT  ,32.90065002,-97.14650726
1,FLWRMNDS1_8,138.0,1,ONCOR_ED    ,O_DENTON   ,32.99769974,-97.06159973
1,BEARCK3_8,138.0,1,ONCOR_ED    ,O_TARRANT  ,32.89550018,-97.20149994
1,KELLER2_T8,138.0,1,ONCOR_ED    ,O_TARRANT  ,32.92058945,-97.25657654
1,WPKELLR1_8,138.0,1,ONCOR_ED    ,O_TARRANT  ,32.91646957,-97.19773865
1,WPKELLR2_8,138.0,1,ONCOR_ED    ,O_TARRANT  ,32.91646957,-97.19773865
1,MEADPRK1_8,138.0,2,ONCOR_ED    ,O_TARRANT  ,32.85100174,-97.18699646
1,MEADPRK2_8,138.0,1,ONCOR_ED    ,O_TARRANT  ,32.85100174,-97.18699646
1,SMITHFD1_8,138.0,1,ONCOR_ED    ,O_TARRANT  ,32.88663864,-97.15361023
1,SMITHFD2_8,138.0,1,ONCOR_ED    ,O_TARRANT  ,32.88663864,-97.15361023
1,WATAGAN_T8,138.0,1,ONCOR_ED    ,O_TARRANT  ,32.84629822,-97.22660065
1,WATAGAS_T8,138.0,1,ONCOR_ED    ,O_TARRANT  ,32.84629822,-97.22660065
1,WATAGA1_8,138.0,1,ONCOR_ED    ,O_TARRANT  ,32.84629822,-97.22660065
1,WATAGA2_8,138.0,1,ONCOR_ED    ,O_TARRANT  ,32.84629822,-97.22660065
1,HALTOM1_8,138.0,1,ONCOR_ED    ,O_TARRANT  ,32.83010101,-97.26869965
1,GEMINI2_8,138.0,1,ONCOR_ED    ,O_TARRANT  ,32.8207016,-97.30290222
1,GEMINI1_8,138.0,1,ONCOR_ED    ,O_TARRANT  ,32.8205986,-97.30280304
1,BEDFORD1_8,138.0,1,ONCOR_ED    ,O_TARRANT  ,32.85266876,-97.14732361
1,BD_WDSN1_T8,138.0,1,ONCOR_ED    ,O_TARRANT  ,32.8594017,-97.12159729
1,BD_WDSN2_T8,138.0,1,ONCOR_ED    ,O_TARRANT  ,32.8594017,-97.12169647
1,IRVBELT2_T8,138.0,1,ONCOR_ED    ,O_DALLAS   ,32.8158989,-96.97460175
1,IRVING1_8,138.0,1,ONCOR_ED    ,O_DALLAS   ,32.81592178,-96.97451782
1,IRVGRNT1_8,138.0,1,ONCOR_ED    ,O_DALLAS   ,32.81710052,-96.94529724
1,BOATCLUB1_8,138.0,1,ONCOR_ED    ,O_TARRANT  ,32.87009811,-97.3914032
1,WILDWD_8,138.0,1,ONCOR_ED    ,O_DALLAS   ,32.81610107,-96.93209839
1,AZLE1_8,138.0,1,ONCOR_ED    ,O_TARRANT  ,32.86100006,-97.51399994
1,ESTELLE_8,138.0,2,ONCOR_ED    ,O_DALLAS   ,32.85540009,-97.02149963
1,ROSEN1_T8,138.0,1,ONCOR_ED    ,O_TARRANT  ,32.87879944,-97.38300323
1,ROSEN2_T8,138.0,1,ONCOR_ED    ,O_TARRANT  ,32.87670135,-97.38069916
1,ROSEN1_8,138.0,1,ONCOR_ED    ,O_TARRANT  ,32.87670135,-97.38069916
1,BLUEMD2_8,138.0,1,ONCOR_ED    ,O_TARRANT  ,32.83850098,-97.34380341
1,BLUEMD1_8,138.0,1,ONCOR_ED    ,O_TARRANT  ,32.83940125,-97.34329987
1,DEENSW_8,138.0,1,ONCOR_ED    ,O_TARRANT  ,32.82139969,-97.32700348
1,WAGROBT1_8,138.0,1,ONCOR_ED    ,O_TARRANT  ,32.89699936,-97.37449646
1,WAGROBT2_8,138.0,1,ONCOR_ED    ,O_TARRANT  ,32.89709854,-97.37439728
1,FOSLCRK1_8,138.0,1,ONCOR_ED    ,O_TARRANT  ,32.87559891,-97.30740356
1,HORSEMAN1_8,138.0,1,ONCOR_ED    ,O_TARRANT  ,32.87630081,-97.32929993
1,HORSEMAN2_8,138.0,1,ONCOR_ED    ,O_TARRANT  ,32.87599945,-97.32879639
1,HICKS_SW1_5,345.0,1,ONCOR_ED    ,O_TARRANT  ,32.90449905,-97.38339996
1,HICKS_SW_1_8,138.0,1,ONCOR_ED    ,O_TARRANT  ,32.90449905,-97.38339996
1,DEVITT_8,138.0,1,ONCOR_ED    ,O_TARRANT  ,,
1,SANSOM1_8,138.0,1,ONCOR_ED    ,O_TARRANT  ,32.81370163,-97.38269806
1,SANSOM2_8,138.0,1,ONCOR_ED    ,O_TARRANT  ,32.81349945,-97.38259888
1,WHILL1_8,138.0,1,ONCOR_ED    ,O_TARRANT  ,32.73939133,-97.3323822
1,WHILL2_8,138.0,1,ONCOR_ED    ,O_TARRANT  ,32.73939133,-97.3323822
1,WHTSTLMNT_9,69.0,1,ONCOR_ED    ,O_TARRANT  ,32.74917984,-97.4538269
1,HERTG3_8,138.0,1,ONCOR_ED    ,O_TARRANT  ,32.79272079,-97.27088928
1,HERTG2_8,138.0,1,ONCOR_ED    ,O_TARRANT  ,32.76253891,-97.33513641
1,HERTG1_8,138.0,1,ONCOR_ED    ,O_TARRANT  ,32.79272079,-97.27088928
1,GEN_DYN1_9,69.0,1,ONCOR_ED    ,O_TARRANT  ,32.77396011,-97.47026062
1,HALTOM2_8,138.0,1,ONCOR_ED    ,O_TARRANT  ,32.8302002,-97.26850128
1,RICHLN1_8,138.0,1,ONCOR_ED    ,O_TARRANT  ,32.82476044,-97.21875
1,RICHLN2_8,138.0,1,ONCOR_ED    ,O_TARRANT  ,32.82476044,-97.21875
1,SPRNGDL1_8,138.0,1,ONCOR_ED    ,O_TARRANT  ,32.8192215,-97.24790192
1,SPRNGDL2_8,138.0,1,ONCOR_ED    ,O_TARRANT  ,32.8192215,-97.24790192
1,RANDL_W_T8,138.0,1,ONCOR_ED    ,O_TARRANT  ,32.79917145,-97.22268677
1,RANDL_E_T8,138.0,1,ONCOR_ED    ,O_TARRANT  ,32.79383087,-97.21663666
1,RANDL1_8,138.0,1,ONCOR_ED    ,O_TARRANT  ,32.78858948,-97.24593353
1,RANDL2_8,138.0,1,ONCOR_ED    ,O_TARRANT  ,32.78858948,-97.24593353
1,PNTHRISL_8,138.0,1,ONCOR_ED    ,O_TARRANT  ,32.78319931,-97.30090332
1,WHITE1_T8,138.0,1,ONCOR_ED    ,O_TARRANT  ,32.78696823,-97.20600891
1,WHITE2_T8,138.0,1,ONCOR_ED    ,O_TARRANT  ,32.78092957,-97.21034241
1,WHITE1_8,138.0,1,ONCOR_ED    ,O_TARRANT  ,32.76409912,-97.19180298
1,WHITE2_8,138.0,1,ONCOR_ED    ,O_TARRANT  ,32.7641983,-97.19180298
1,TRINITY1_8,138.0,1,ONCOR_ED    ,O_TARRANT  ,32.80693054,-97.20915985
1,TRINITY3_8,138.0,1,ONCOR_ED    ,O_TARRANT  ,32.80693054,-97.20915985
1,HURSTN_8,138.0,1,ONCOR_ED    ,O_TARRANT  ,32.81110001,-97.15859985
1,HURSTS_8,138.0,1,ONCOR_ED    ,O_TARRANT  ,32.81110001,-97.15859985
1,DAVIS_T8,138.0,1,ONCOR_ED    ,O_TARRANT  ,32.81269836,-97.13950348
1,EULESS_S_8,138.0,1,ONCOR_ED    ,O_TARRANT  ,32.81510162,-97.12210083
1,INT_AIR1_8,138.0,1,ONCOR_ED    ,O_TARRANT  ,32.81790161,-97.063797
1,INT_AIR2_8,138.0,1,ONCOR_ED    ,O_TARRANT  ,32.81890106,-97.063797
1,TENMILE_8,138.0,1,ONCOR_ED    ,O_DALLAS   ,32.59700012,-96.71849823
1,WATSON1_8,138.0,1,ONCOR_ED    ,O_TARRANT  ,32.77859879,-97.0667038
1,BRKHLW1_T8,138.0,1,ONCOR_ED    ,O_TARRANT  ,32.75854874,-97.06745911
1,BRKHLW2_T8,138.0,1,ONCOR_ED    ,O_TARRANT  ,32.75915909,-97.0759964
1,BRKHLW1_8,138.0,1,ONCOR_ED    ,O_TARRANT  ,32.74848175,-97.06495667
1,BRKHLW2_8,138.0,1,ONCOR_ED    ,O_TARRANT  ,32.74848175,-97.06495667
1,GRT_SW1_8,138.0,1,ONCOR_ED    ,O_TARRANT  ,32.74240112,-97.07369995
1,GRT_SW2_8,138.0,1,ONCOR_ED    ,O_TARRANT  ,32.74219894,-97.07389832
1,GEN_MOT2_8,138.0,1,ONCOR_ED    ,O_TARRANT  ,32.7397995,-97.06950378
1,EXECPKWY1_8,138.0,1,ONCOR_ED    ,O_TARRANT  ,32.74599838,-97.07369995
1,EXECPKWY2_8,138.0,1,ONCOR_ED    ,O_TARRANT  ,32.74639893,-97.07389832
1,TENMILE2_8,138.0,1,ONCOR_ED    ,O_DALLAS   ,32.61700058,-96.69850159
1,CAVENDER_P8,138.0,1,ONCOR_ED    ,O_GRAYSON  ,,
1,AM_MFG_T8,138.0,1,ONCOR_ED    ,O_TARRANT  ,32.81499863,-97.29869843
1,AM_MFG1_8,138.0,1,ONCOR_ED    ,O_TARRANT  ,32.81499863,-97.29869843
1,SPRNGDL_T8,138.0,1,ONCOR_ED    ,O_TARRANT  ,32.81327057,-97.25840759
1,CURRIE1_8,138.0,1,ONCOR_ED    ,O_TARRANT  ,32.75880051,-97.35749817
1,BLACKSTN1_8,138.0,1,ONCOR_ED    ,O_TARRANT  ,32.76539993,-97.39129639
1,CARSWELL1_8,138.0,1,ONCOR_ED    ,O_TARRANT  ,32.76599884,-97.41960144
1,DENTN_AV1_8,138.0,1,ONCOR_ED    ,O_TARRANT  ,32.79909897,-97.32530212
1,STUART1_8,138.0,1,ONCOR_ED    ,O_TARRANT  ,32.68510056,-97.29129791
1,FLYNGTGR_8,138.0,1,ONCOR_ED    ,O_LAMAR    ,33.64149857,-95.60389709
1,HEMPHILL1_8,138.0,1,ONCOR_ED    ,O_TARRANT  ,32.73939133,-97.3323822
1,AYERS1_8,138.0,1,ONCOR_ED    ,O_TARRANT  ,32.73350143,-97.26989746
1,EPDC_ADMS_8,138.0,1,ONCOR_ED    ,O_TARRANT  ,32.75955963,-97.2958374
1,EPDC_STH_8,138.0,1,ONCOR_ED    ,O_TARRANT  ,32.76298904,-97.28611755
1,EPDC_FRNK_8,138.0,1,ONCOR_ED    ,O_TARRANT  ,32.78052139,-97.28349304
1,MISLTOE1_8,138.0,1,ONCOR_ED    ,O_TARRANT  ,32.73453903,-97.35370636
1,MISLTOE3_8,138.0,1,ONCOR_ED    ,O_TARRANT  ,32.73453903,-97.35370636
1,HORNE1_8,138.0,1,ONCOR_ED    ,O_TARRANT  ,32.71020126,-97.40499878
1,HORNE2_8,138.0,1,ONCOR_ED    ,O_TARRANT  ,32.71009827,-97.40499878
1,FARON1_8,138.0,1,ONCOR_ED    ,O_TARRANT  ,32.73509979,-97.40550232
1,FARON2_8,138.0,1,ONCOR_ED    ,O_TARRANT  ,32.73500061,-97.40550232
1,EPDC1_8,138.0,1,ONCOR_ED    ,O_TARRANT  ,32.76934052,-97.29006195
1,EPDC2_8,138.0,1,ONCOR_ED    ,O_TARRANT  ,32.76934052,-97.29006195
1,EPDC3_8,138.0,1,ONCOR_ED    ,O_TARRANT  ,32.76934052,-97.29006195
1,TOKEN_P8,138.0,1,ONCOR_ED    ,O_COLLIN   ,,
1,BRYTIRV1_8,138.0,1,ONCOR_ED    ,O_TARRANT  ,32.67559814,-97.417099
1,BRYTIRV2_8,138.0,1,ONCOR_ED    ,O_TARRANT  ,32.67739868,-97.41609955
1,WDGWD_N_8,138.0,1,ONCOR_ED    ,O_TARRANT  ,32.65800095,-97.40319824
1,WDGWD_S_8,138.0,1,ONCOR_ED    ,O_TARRANT  ,32.65790176,-97.4029007
1,WDGWD1_8,138.0,1,ONCOR_ED    ,O_TARRANT  ,32.65790176,-97.4029007
1,WDGWD2_8,138.0,1,ONCOR_ED    ,O_TARRANT  ,32.65790176,-97.4029007
1,PAFFRD1_8,138.0,1,ONCOR_ED    ,O_TARRANT  ,32.68478012,-97.34298706
1,PAFFRD2_8,138.0,1,ONCOR_ED    ,O_TARRANT  ,32.68478012,-97.34298706
1,EDGECLF1_8,138.0,1,ONCOR_ED    ,O_TARRANT  ,32.64699936,-97.34750366
1,EDGECLF2_8,138.0,1,ONCOR_ED    ,O_TARRANT  ,32.64910126,-97.34739685
1,ROGERS1_8,138.0,1,ONCOR_ED    ,O_TARRANT  ,32.64530182,-97.31369781
1,ROGERS2_8,138.0,1,ONCOR_ED    ,O_TARRANT  ,32.64670181,-97.31349945
1,ALCON1_T8,138.0,1,ONCOR_ED    ,O_TARRANT  ,32.64509964,-97.30400085
1,ALCON2_T8,138.0,1,ONCOR_ED    ,O_TARRANT  ,32.645401,-97.30370331
1,PRIMRSE1_8,138.0,1,ONCOR_ED    ,O_TARRANT  ,32.62979889,-97.4178009
1,PRIMRSE3_8,138.0,1,ONCOR_ED    ,O_TARRANT  ,32.62969971,-97.41660309
1,KEMPVEN_8,138.0,1,ONCOR_ED    ,O_ELLIS    ,32.45199966,-97.05200195
1,BOURLAND_8,138.0,1,ONCOR_ED    ,O_TARRANT  ,32.57229996,-97.56659698
1,CATLCRK_P8,138.0,4,ONCOR_ED    ,O_JOHNSON  ,,
1,WILSHIRE_8,138.0,1,ONCOR_ED    ,O_JOHNSON  ,32.49779892,-97.35510254
1,RENDON1_8,138.0,1,ONCOR_ED    ,O_TARRANT  ,32.5719986,-97.24539948
1,MANSFLD_8,138.0,1,ONCOR_ED    ,O_TARRANT  ,32.58530045,-97.17340088
1,BURLESON_8,138.0,1,ONCOR_ED    ,O_TARRANT  ,32.55870056,-97.31739807
1,JOSHUA_8,138.0,1,ONCOR_ED    ,O_JOHNSON  ,32.46186829,-97.38388062
1,ROLLHL1_T8,138.0,1,ONCOR_ED    ,O_TARRANT  ,32.65340042,-97.28369904
1,ROLLHL1_8,138.0,1,ONCOR_ED    ,O_TARRANT  ,32.66149902,-97.28859711
1,ROLLHL2_8,138.0,1,ONCOR_ED    ,O_TARRANT  ,32.66159821,-97.2881012
1,TRWDRLHL1_8,138.0,1,ONCOR_ED    ,O_TARRANT  ,32.68156052,-97.27337646
1,BURLSNSW_8,138.0,1,ONCOR_ED    ,O_TARRANT  ,32.55870056,-97.31739807
1,BWN_TAT_T8,138.0,1,ONCOR_ED    ,O_TARRANT  ,32.73210144,-97.17060089
1,TATE_W_T8,138.0,1,ONCOR_ED    ,O_TARRANT  ,32.7016983,-97.19190216
1,TATE_E_T8,138.0,1,ONCOR_ED    ,O_TARRANT  ,32.70159912,-97.19059753
1,TATESPG1_8,138.0,1,ONCOR_ED    ,O_TARRANT  ,32.68370056,-97.18609619
1,TATESPG3_8,138.0,1,ONCOR_ED    ,O_TARRANT  ,32.68320084,-97.18630219
1,OAKHILL1_T8,138.0,1,ONCOR_ED    ,O_TARRANT  ,32.67499924,-97.22589874
1,OAKHILL2_T8,138.0,1,ONCOR_ED    ,O_TARRANT  ,32.67499924,-97.22589874
1,OAKHILL1_8,138.0,1,ONCOR_ED    ,O_TARRANT  ,32.67539978,-97.25430298
1,OAKHILL2_8,138.0,1,ONCOR_ED    ,O_TARRANT  ,32.67549896,-97.2542038
1,PEBBLCRK_8,138.0,1,ONCOR_ED    ,O_ELLIS    ,32.53760147,-96.79959869
1,BOWEN2_8,138.0,1,ONCOR_ED    ,O_TARRANT  ,32.75730133,-97.16190338
1,VILGCRK1_8,138.0,1,ONCOR_ED    ,O_TARRANT  ,32.77399826,-97.14320374
1,GUNTERSW_5,345.0,1,ONCOR_ED    ,O_GRAYSON  ,,
1,GUNTERSW_8,138.0,1,ONCOR_ED    ,O_GRAYSON  ,,
1,DAVIS1_8,138.0,1,ONCOR_ED    ,O_TARRANT  ,32.76879883,-97.12409973
1,DAVIS2_8,138.0,1,ONCOR_ED    ,O_TARRANT  ,32.76879883,-97.12409973
1,ENNS_W_8,138.0,1,ONCOR_ED    ,O_ELLIS    ,32.31890106,-96.67440033
1,EULTRIN1_8,138.0,1,ONCOR_ED    ,O_TARRANT  ,32.81930161,-97.09590149
1,EULTRIN2_8,138.0,1,ONCOR_ED    ,O_TARRANT  ,32.81890106,-97.09570313
1,LAKEWD1_8,138.0,1,ONCOR_ED    ,O_TARRANT  ,32.71770096,-97.18489838
1,LAKEWD2_8,138.0,1,ONCOR_ED    ,O_TARRANT  ,32.71720123,-97.18499756
1,PANTEGO1_8,138.0,1,ONCOR_ED    ,O_TARRANT  ,32.71110153,-97.15630341
1,BOWEN1_8,138.0,1,ONCOR_ED    ,O_TARRANT  ,32.75719833,-97.16179657
1,ARLGTON1_8,138.0,1,ONCOR_ED    ,O_TARRANT  ,32.71390152,-97.11560059
1,ARLGTON2_8,138.0,1,ONCOR_ED    ,O_TARRANT  ,32.71390152,-97.1155014
1,PARKROW1_8,138.0,1,ONCOR_ED    ,O_TARRANT  ,32.71509933,-97.04810333
1,PARKROW2_8,138.0,1,ONCOR_ED    ,O_TARRANT  ,32.71509933,-97.04779816
1,LTV1_8,138.0,1,ONCOR_ED    ,O_DALLAS   ,32.72430038,-97.03150177
1,POLY_AM1_8,138.0,1,ONCOR_ED    ,O_DALLAS   ,32.71987915,-97.03144073
1,LAVNDRSW_8,138.0,1,ONCOR_ED    ,O_DALLAS   ,32.56830978,-96.6856308
1,GRANDPR1_8,138.0,1,ONCOR_ED    ,O_DALLAS   ,32.72980118,-96.9937973
1,GP_WEST1_8,138.0,1,ONCOR_ED    ,O_DALLAS   ,32.74480057,-97.03500366
1,SHDYGRV1_8,138.0,1,ONCOR_ED    ,O_TARRANT  ,32.7881012,-97.0381012
1,IRVHUNT1_T8,138.0,1,ONCOR_ED    ,O_DALLAS   ,32.78960037,-97.02890015
1,IRVHUNT1_8,138.0,1,ONCOR_ED    ,O_DALLAS   ,32.78480148,-96.9937973
1,DALWRTH1_8,138.0,1,ONCOR_ED    ,O_DALLAS   ,32.7582016,-97.03399658
1,BIG3_GP_T8,138.0,1,ONCOR_ED    ,O_DALLAS   ,32.75139999,-96.9450531
1,IRVHUNT2_8,138.0,1,ONCOR_ED    ,O_DALLAS   ,32.78480148,-96.9937973
1,DCRDVA_DM_8,138.0,1,ONCOR_ED    ,O_HOOD     ,32.36920166,-97.69139862
1,CMPKSTUP_8,138.0,1,ONCOR_ED    ,O_HOOD     ,32.29804993,-97.78972626
1,CLEBRNSW_8,138.0,1,ONCOR_ED    ,O_JOHNSON  ,32.35409927,-97.37487793
1,CLEBRN_N_8,138.0,1,ONCOR_ED    ,O_JOHNSON  ,32.37717819,-97.3866806
1,GODLEY_8,138.0,1,ONCOR_ED    ,O_JOHNSON  ,32.41199875,-97.45559692
1,CHARCA_8,138.0,1,ONCOR_ED    ,O_JOHNSON  ,32.51060104,-97.56900024
1,AIRLIQD_P8,138.0,1,ONCOR_ED    ,O_JOHNSON  ,32.39241028,-97.3928833
1,CARMICHL_5,345.0,1,ONCOR_ED    ,O_HOOD     ,32.39229965,-97.68599701
1,PADERA_8,138.0,1,ONCOR_ED    ,O_ELLIS    ,32.51900101,-96.95690155
